{"objects":[{"id":"id_0","name":"Name of 0","nome":"Iquique","provincia":"Iquique","region":"Tarapacá","centroid":{"lat":-20.82175582942525,"lng":-70.1481900752018},"center":{"lat":-20.751369918999956,"lng":-70.01535448149997}},{"id":"id_1","name":"Name of 1","nome":"Alto Hospicio","provincia":"Iquique","region":"Tarapacá","centroid":{"lat":-20.231805390999956,"lng":-70.07236150576188},"center":{"lat":-20.19992500099994,"lng":-70.00871500049999}},{"id":"id_2","name":"Name of 2","nome":"Pozo Almonte","provincia":"Tamarugal","region":"Tarapacá","centroid":{"lat":-20.744000755539147,"lng":-69.3350460193006},"center":{"lat":-20.77105923299996,"lng":-69.48515499999999}},{"id":"id_3","name":"Name of 3","nome":"Camiña","provincia":"Tamarugal","region":"Tarapacá","centroid":{"lat":-19.36231216664562,"lng":-69.45417088513385},"center":{"lat":-19.378517255999952,"lng":-69.44726104249999}},{"id":"id_4","name":"Name of 4","nome":"Colchane","provincia":"Tamarugal","region":"Tarapacá","centroid":{"lat":-19.326035081858848,"lng":-68.92064419240488},"center":{"lat":-19.35429159599994,"lng":-68.86138033349998}},{"id":"id_5","name":"Name of 5","nome":"Huara","provincia":"Tamarugal","region":"Tarapacá","centroid":{"lat":-19.587753444823303,"lng":-69.9289592755085},"center":{"lat":-19.56170379349996,"lng":-69.597545}},{"id":"id_6","name":"Name of 6","nome":"Pica","provincia":"Tamarugal","region":"Tarapacá","centroid":{"lat":-20.419701410980725,"lng":-68.83471877176096},"center":{"lat":-20.442410000999956,"lng":-68.95688020349996}},{"id":"id_7","name":"Name of 7","nome":"Antofagasta","provincia":"Antofagasta","region":"Antofagasta","centroid":{"lat":-24.300965204903648,"lng":-69.66751152431635},"center":{"lat":-24.230725920499935,"lng":-69.34870367399999}},{"id":"id_8","name":"Name of 8","nome":"Mejillones","provincia":"Antofagasta","region":"Antofagasta","centroid":{"lat":-23.00782333651888,"lng":-70.40122909542195},"center":{"lat":-22.89317993599994,"lng":-70.25020680899996}},{"id":"id_9","name":"Name of 9","nome":"Sierra Gorda","provincia":"Antofagasta","region":"Antofagasta","centroid":{"lat":-23.26625046776186,"lng":-68.96286183272484},"center":{"lat":-23.24956364399995,"lng":-69.33373992449998}},{"id":"id_10","name":"Name of 10","nome":"Taltal","provincia":"Antofagasta","region":"Antofagasta","centroid":{"lat":-25.404066973968714,"lng":-70.2781241972856},"center":{"lat":-25.308941426499956,"lng":-69.86435765249999}},{"id":"id_11","name":"Name of 11","nome":"Calama","provincia":"El Loa","region":"Antofagasta","centroid":{"lat":-22.538662304808295,"lng":-68.35612181001385},"center":{"lat":-22.102955846499952,"lng":-68.55405521999998}},{"id":"id_12","name":"Name of 12","nome":"Ollagüe","provincia":"El Loa","region":"Antofagasta","centroid":{"lat":-21.444199072133287,"lng":-68.2772246012444},"center":{"lat":-21.458102868499935,"lng":-68.29769493249995}},{"id":"id_13","name":"Name of 13","nome":"San Pedro de Atacama","provincia":"El Loa","region":"Antofagasta","centroid":{"lat":-22.916734208417594,"lng":-68.25653549599414},"center":{"lat":-23.35439947499995,"lng":-67.85414937149994}},{"id":"id_14","name":"Name of 14","nome":"Tocopilla","provincia":"Tocopilla","region":"Antofagasta","centroid":{"lat":-22.087173697080456,"lng":-70.1343233556245},"center":{"lat":-22.02913169599995,"lng":-70.01732379849997}},{"id":"id_15","name":"Name of 15","nome":"María Elena","provincia":"Tocopilla","region":"Antofagasta","centroid":{"lat":-22.014859344137893,"lng":-69.76710962009054},"center":{"lat":-22.08292021449995,"lng":-69.4218089915}},{"id":"id_16","name":"Name of 16","nome":"Copiapó","provincia":"Copiapó","region":"Atacama","centroid":{"lat":-27.442064071861935,"lng":-69.8293510668367},"center":{"lat":-27.422569694999964,"lng":-69.70380423649996}},{"id":"id_17","name":"Name of 17","nome":"Caldera","provincia":"Copiapó","region":"Atacama","centroid":{"lat":-27.21683833928812,"lng":-70.85894758396222},"center":{"lat":-27.239099849999945,"lng":-70.6132}},{"id":"id_18","name":"Name of 18","nome":"Tierra Amarilla","provincia":"Copiapó","region":"Atacama","centroid":{"lat":-27.877491095222954,"lng":-69.6828337513933},"center":{"lat":-27.897999721999952,"lng":-69.67713220849996}},{"id":"id_19","name":"Name of 19","nome":"Chañaral","provincia":"Chañaral","region":"Atacama","centroid":{"lat":-26.366165693106037,"lng":-70.41460490962545},"center":{"lat":-26.41884383349995,"lng":-70.30380884949994}},{"id":"id_20","name":"Name of 20","nome":"Diego de Almagro","provincia":"Chañaral","region":"Atacama","centroid":{"lat":-26.208773578377706,"lng":-69.25058651393726},"center":{"lat":-26.103664843499928,"lng":-69.28926508249998}},{"id":"id_21","name":"Name of 21","nome":"Vallenar","provincia":"Huasco","region":"Atacama","centroid":{"lat":-28.676150273975825,"lng":-70.61585957854335},"center":{"lat":-28.683343099999945,"lng":-70.60153152249998}},{"id":"id_22","name":"Name of 22","nome":"Alto del Carmen","provincia":"Huasco","region":"Atacama","centroid":{"lat":-28.98458268448172,"lng":-70.14709345712092},"center":{"lat":-29.053687633499948,"lng":-70.15379495699997}},{"id":"id_23","name":"Name of 23","nome":"Freirina","provincia":"Huasco","region":"Atacama","centroid":{"lat":-28.797120158121974,"lng":-71.21862956309445},"center":{"lat":-28.73523454049993,"lng":-71.20244584649996}},{"id":"id_24","name":"Name of 24","nome":"Huasco","provincia":"Huasco","region":"Atacama","centroid":{"lat":-28.28741987477119,"lng":-71.14503666250899},"center":{"lat":-28.290517422499963,"lng":-71.04250313149996}},{"id":"id_25","name":"Name of 25","nome":"La Serena","provincia":"Elqui","region":"Coquimbo","centroid":{"lat":-29.79369646444501,"lng":-71.08616288597585},"center":{"lat":-29.836776442999934,"lng":-71.01503594249999}},{"id":"id_26","name":"Name of 26","nome":"Coquimbo","provincia":"Elqui","region":"Coquimbo","centroid":{"lat":-30.177580960871,"lng":-71.37967430768941},"center":{"lat":-30.219680401999966,"lng":-71.39075059999996}},{"id":"id_27","name":"Name of 27","nome":"Andacollo","provincia":"Elqui","region":"Coquimbo","centroid":{"lat":-30.246734996416624,"lng":-71.1085556115694},"center":{"lat":-30.25694613099995,"lng":-71.06363556749994}},{"id":"id_28","name":"Name of 28","nome":"La Higuera","provincia":"Elqui","region":"Coquimbo","centroid":{"lat":-29.392686743789827,"lng":-71.11915781309753},"center":{"lat":-29.376980775999954,"lng":-71.00242759949997}},{"id":"id_29","name":"Name of 29","nome":"Paiguano","provincia":"Elqui","region":"Coquimbo","centroid":{"lat":-30.23048784547675,"lng":-70.36179811965818},"center":{"lat":-30.227838216999942,"lng":-70.34715283499995}},{"id":"id_30","name":"Name of 30","nome":"Vicuña","provincia":"Elqui","region":"Coquimbo","centroid":{"lat":-29.936382360689723,"lng":-70.37286932686425},"center":{"lat":-29.877027706499945,"lng":-70.44196101599996}},{"id":"id_31","name":"Name of 31","nome":"Illapel","provincia":"Choapa","region":"Coquimbo","centroid":{"lat":-31.551164333754496,"lng":-70.977148061759},"center":{"lat":-31.589623186999972,"lng":-70.96214157349996}},{"id":"id_32","name":"Name of 32","nome":"Canela","provincia":"Choapa","region":"Coquimbo","centroid":{"lat":-31.50248916762449,"lng":-71.48672240672727},"center":{"lat":-31.464553383499947,"lng":-71.36675294599996}},{"id":"id_33","name":"Name of 33","nome":"Los Vilos","provincia":"Choapa","region":"Coquimbo","centroid":{"lat":-31.93966676668401,"lng":-71.46590942790611},"center":{"lat":-31.938791648499972,"lng":-71.26974664408534}},{"id":"id_34","name":"Name of 34","nome":"Salamanca","provincia":"Choapa","region":"Coquimbo","centroid":{"lat":-31.9275492607723,"lng":-70.62030573029273},"center":{"lat":-31.909032732999975,"lng":-70.65505516649995}},{"id":"id_35","name":"Name of 35","nome":"Ovalle","provincia":"Limarí","region":"Coquimbo","centroid":{"lat":-30.759082417989518,"lng":-71.47142196586601},"center":{"lat":-30.763351398499964,"lng":-71.28535830799996}},{"id":"id_36","name":"Name of 36","nome":"Combarbalá","provincia":"Limarí","region":"Coquimbo","centroid":{"lat":-31.15185089883629,"lng":-70.96891240428864},"center":{"lat":-31.13941257999997,"lng":-70.94391270349996}},{"id":"id_37","name":"Name of 37","nome":"Monte Patria","provincia":"Limarí","region":"Coquimbo","centroid":{"lat":-30.879285828602555,"lng":-70.67469373613032},"center":{"lat":-30.89952937999996,"lng":-70.68383416049994}},{"id":"id_38","name":"Name of 38","nome":"Punitaqui","provincia":"Limarí","region":"Coquimbo","centroid":{"lat":-30.934320043612203,"lng":-71.3195291876088},"center":{"lat":-30.94289773099996,"lng":-71.28589240749997}},{"id":"id_39","name":"Name of 39","nome":"Río Hurtado","provincia":"Limarí","region":"Coquimbo","centroid":{"lat":-30.445031914324208,"lng":-70.6433092643624},"center":{"lat":-30.451777650999958,"lng":-70.62962956249996}},{"id":"id_40","name":"Name of 40","nome":"Valparaíso","provincia":"Valparaíso","region":"Valparaíso","centroid":{"lat":-33.112857930215085,"lng":-71.61944559677292},"center":{"lat":-33.11543639899995,"lng":-71.5647784965}},{"id":"id_41","name":"Name of 41","nome":"Casablanca","provincia":"Valparaíso","region":"Valparaíso","centroid":{"lat":-33.28673590778753,"lng":-71.50671885677777},"center":{"lat":-33.322168651499936,"lng":-71.45172044849997}},{"id":"id_42","name":"Name of 42","nome":"Juan Fernández","provincia":"Valparaíso","region":"Valparaíso","centroid":{"lat":-32.05285887527516,"lng":-79.59477952844038},"center":{"lat":-30.04469958399997,"lng":-79.80371180899996}},{"id":"id_43","name":"Name of 43","nome":"Puchuncaví","provincia":"Valparaíso","region":"Valparaíso","centroid":{"lat":-32.732159847163224,"lng":-71.39549570380265},"center":{"lat":-32.74468907949995,"lng":-71.39302740099998}},{"id":"id_44","name":"Name of 44","nome":"Quintero","provincia":"Valparaíso","region":"Valparaíso","centroid":{"lat":-32.83615553724995,"lng":-71.47811872319312},"center":{"lat":-32.84309104999997,"lng":-71.46807322849997}},{"id":"id_45","name":"Name of 45","nome":"Isla de Pascua","provincia":"Isla de Pascua","region":"Valparaíso","centroid":{"lat":-27.080894831016092,"lng":-109.18248132169239},"center":{"lat":-26.836130158999964,"lng":-107.40715185349995}},{"id":"id_46","name":"Name of 46","nome":"Los Andes","provincia":"Los Andes","region":"Valparaíso","centroid":{"lat":-32.94066690011655,"lng":-70.29134358410947},"center":{"lat":-32.957686148999954,"lng":-70.32422635299994}},{"id":"id_47","name":"Name of 47","nome":"Calle Larga","provincia":"Los Andes","region":"Valparaíso","centroid":{"lat":-32.94652584590594,"lng":-70.55156757304269},"center":{"lat":-32.95691137899993,"lng":-70.54184685899997}},{"id":"id_48","name":"Name of 48","nome":"Rinconada","provincia":"Los Andes","region":"Valparaíso","centroid":{"lat":-32.879407541309824,"lng":-70.70875323650701},"center":{"lat":-32.87352843199997,"lng":-70.70773211699995}},{"id":"id_49","name":"Name of 49","nome":"San Esteban","provincia":"Los Andes","region":"Valparaíso","centroid":{"lat":-32.67366542770809,"lng":-70.34086199540184},"center":{"lat":-32.669768488499955,"lng":-70.36821511999997}},{"id":"id_50","name":"Name of 50","nome":"La Ligua","provincia":"Petorca","region":"Valparaíso","centroid":{"lat":-32.34243343385968,"lng":-71.30054567801788},"center":{"lat":-32.375026106499945,"lng":-71.29413594799996}},{"id":"id_51","name":"Name of 51","nome":"Cabildo","provincia":"Petorca","region":"Valparaíso","centroid":{"lat":-32.42452845677739,"lng":-70.80820406018492},"center":{"lat":-32.42344831449998,"lng":-70.77685874899996}},{"id":"id_52","name":"Name of 52","nome":"Papudo","provincia":"Petorca","region":"Valparaíso","centroid":{"lat":-32.47047346415554,"lng":-71.38885305465556},"center":{"lat":-32.47782157299997,"lng":-71.37334750299996}},{"id":"id_53","name":"Name of 53","nome":"Petorca","provincia":"Petorca","region":"Valparaíso","centroid":{"lat":-32.18537735501728,"lng":-70.83606774995668},"center":{"lat":-32.203178086499946,"lng":-70.81378661899996}},{"id":"id_54","name":"Name of 54","nome":"Zapallar","provincia":"Petorca","region":"Valparaíso","centroid":{"lat":-32.588386827769725,"lng":-71.38349716310792},"center":{"lat":-32.58990076499995,"lng":-71.33857}},{"id":"id_55","name":"Name of 55","nome":"Calera","provincia":"Quillota","region":"Valparaíso","centroid":{"lat":-32.794361760809494,"lng":-71.15330055044441},"center":{"lat":-32.808103613999975,"lng":-71.15850600499996}},{"id":"id_56","name":"Name of 56","nome":"Hijuelas","provincia":"Quillota","region":"Valparaíso","centroid":{"lat":-32.85655674954636,"lng":-71.0813641886804},"center":{"lat":-32.862909996999946,"lng":-71.09156477749997}},{"id":"id_57","name":"Name of 57","nome":"La Cruz","provincia":"Quillota","region":"Valparaíso","centroid":{"lat":-32.82410930778567,"lng":-71.2465989025},"center":{"lat":-32.82433010249994,"lng":-71.24334739149998}},{"id":"id_58","name":"Name of 58","nome":"Nogales","provincia":"Quillota","region":"Valparaíso","centroid":{"lat":-32.69146805616542,"lng":-71.1777456908345},"center":{"lat":-32.70000601899997,"lng":-71.17640511999998}},{"id":"id_59","name":"Name of 59","nome":"San Antonio","provincia":"San Antonio","region":"Valparaíso","centroid":{"lat":-33.65641144070907,"lng":-71.48635712751515},"center":{"lat":-33.67111347149995,"lng":-71.47913141499998}},{"id":"id_60","name":"Name of 60","nome":"Algarrobo","provincia":"San Antonio","region":"Valparaíso","centroid":{"lat":-33.338099046674344,"lng":-71.64526676307555},"center":{"lat":-33.32696480399994,"lng":-71.60998339}},{"id":"id_61","name":"Name of 61","nome":"Cartagena","provincia":"San Antonio","region":"Valparaíso","centroid":{"lat":-33.5281046592211,"lng":-71.46565579790382},"center":{"lat":-33.53079937149994,"lng":-71.47781620149996}},{"id":"id_62","name":"Name of 62","nome":"El Quisco","provincia":"San Antonio","region":"Valparaíso","centroid":{"lat":-33.40926801863092,"lng":-71.6765835676905},"center":{"lat":-33.40971856949997,"lng":-71.64959981199998}},{"id":"id_63","name":"Name of 63","nome":"El Tabo","provincia":"San Antonio","region":"Valparaíso","centroid":{"lat":-33.479888194455505,"lng":-71.5767392816333},"center":{"lat":-33.480158759999966,"lng":-71.57925807249998}},{"id":"id_64","name":"Name of 64","nome":"Santo Domingo","provincia":"San Antonio","region":"Valparaíso","centroid":{"lat":-33.847162584435026,"lng":-71.74008154718182},"center":{"lat":-33.79390884999995,"lng":-71.7153334745}},{"id":"id_65","name":"Name of 65","nome":"San Felipe","provincia":"San Felipe de Aconcagua","region":"Valparaíso","centroid":{"lat":-32.74307585401936,"lng":-70.74664076859219},"center":{"lat":-32.73518500049997,"lng":-70.75207484049994}},{"id":"id_66","name":"Name of 66","nome":"Catemu","provincia":"San Felipe de Aconcagua","region":"Valparaíso","centroid":{"lat":-32.71385717005125,"lng":-70.95771534242729},"center":{"lat":-32.71675040449995,"lng":-70.93752240299995}},{"id":"id_67","name":"Name of 67","nome":"Llaillay","provincia":"San Felipe de Aconcagua","region":"Valparaíso","centroid":{"lat":-32.88381175321048,"lng":-70.89027764689472},"center":{"lat":-32.88938467549997,"lng":-70.88439604649997}},{"id":"id_68","name":"Name of 68","nome":"Panquehue","provincia":"San Felipe de Aconcagua","region":"Valparaíso","centroid":{"lat":-32.79258064085071,"lng":-70.83782318629848},"center":{"lat":-32.78280976749994,"lng":-70.84260185949998}},{"id":"id_69","name":"Name of 69","nome":"Putaendo","provincia":"San Felipe de Aconcagua","region":"Valparaíso","centroid":{"lat":-32.47398784428296,"lng":-70.53198068210185},"center":{"lat":-32.48478632649994,"lng":-70.53018222899996}},{"id":"id_70","name":"Name of 70","nome":"Santa María","provincia":"San Felipe de Aconcagua","region":"Valparaíso","centroid":{"lat":-32.68246454883129,"lng":-70.59936751220478},"center":{"lat":-32.69144287649996,"lng":-70.59799238499997}},{"id":"id_71","name":"Name of 71","nome":"Quilpué","provincia":"Marga Marga","region":"Valparaíso","centroid":{"lat":-33.14480946400489,"lng":-71.26521599274875},"center":{"lat":-33.12326161699997,"lng":-71.24180941399996}},{"id":"id_72","name":"Name of 72","nome":"Olmué","provincia":"Marga Marga","region":"Valparaíso","centroid":{"lat":-33.03462941945117,"lng":-71.11109724617071},"center":{"lat":-33.03731899049998,"lng":-71.11210485149996}},{"id":"id_73","name":"Name of 73","nome":"Rancagua","provincia":"Cachapoal","region":"Libertador General Bernardo O'Higgins","centroid":{"lat":-34.11715123015725,"lng":-70.81127207955049},"center":{"lat":-34.12239701149994,"lng":-70.80904721049995}},{"id":"id_74","name":"Name of 74","nome":"Codegua","provincia":"Cachapoal","region":"Libertador General Bernardo O'Higgins","centroid":{"lat":-34.041947916220295,"lng":-70.50989071226267},"center":{"lat":-34.036886316999954,"lng":-70.52423069949995}},{"id":"id_75","name":"Name of 75","nome":"Coinco","provincia":"Cachapoal","region":"Libertador General Bernardo O'Higgins","centroid":{"lat":-34.28516170879161,"lng":-70.9716775880416},"center":{"lat":-34.27687792499995,"lng":-70.97917526899997}},{"id":"id_76","name":"Name of 76","nome":"Coltauco","provincia":"Cachapoal","region":"Libertador General Bernardo O'Higgins","centroid":{"lat":-34.2825226102571,"lng":-71.09197056648567},"center":{"lat":-34.28755258749996,"lng":-71.07712110249997}},{"id":"id_77","name":"Name of 77","nome":"Doñihue","provincia":"Cachapoal","region":"Libertador General Bernardo O'Higgins","centroid":{"lat":-34.20434394766663,"lng":-70.92443517698145},"center":{"lat":-34.20111679449994,"lng":-70.91863649849998}},{"id":"id_78","name":"Name of 78","nome":"Graneros","provincia":"Cachapoal","region":"Libertador General Bernardo O'Higgins","centroid":{"lat":-34.068664799518466,"lng":-70.75179706444439},"center":{"lat":-34.06734448749995,"lng":-70.74455201449996}},{"id":"id_79","name":"Name of 79","nome":"Las Cabras","provincia":"Cachapoal","region":"Libertador General Bernardo O'Higgins","centroid":{"lat":-34.14675958552878,"lng":-71.3521709481466},"center":{"lat":-34.17052686949995,"lng":-71.32401026699998}},{"id":"id_80","name":"Name of 80","nome":"Machalí","provincia":"Cachapoal","region":"Libertador General Bernardo O'Higgins","centroid":{"lat":-34.32599464540057,"lng":-70.33565977093374},"center":{"lat":-34.35636360899997,"lng":-70.36677701599996}},{"id":"id_81","name":"Name of 81","nome":"Malloa","provincia":"Cachapoal","region":"Libertador General Bernardo O'Higgins","centroid":{"lat":-34.46359076632274,"lng":-70.89841982959487},"center":{"lat":-34.48203701749995,"lng":-70.87704580749997}},{"id":"id_82","name":"Name of 82","nome":"Mostazal","provincia":"Cachapoal","region":"Libertador General Bernardo O'Higgins","centroid":{"lat":-33.94858411224109,"lng":-70.58731297597156},"center":{"lat":-33.94647921649997,"lng":-70.59661939999995}},{"id":"id_83","name":"Name of 83","nome":"Olivar","provincia":"Cachapoal","region":"Libertador General Bernardo O'Higgins","centroid":{"lat":-34.21115432642216,"lng":-70.82037985297772},"center":{"lat":-34.215040776999956,"lng":-70.81582582749996}},{"id":"id_84","name":"Name of 84","nome":"Peumo","provincia":"Cachapoal","region":"Libertador General Bernardo O'Higgins","centroid":{"lat":-34.33821533215659,"lng":-71.21694977386743},"center":{"lat":-34.332173412999936,"lng":-71.22094547249998}},{"id":"id_85","name":"Name of 85","nome":"Pichidegua","provincia":"Cachapoal","region":"Libertador General Bernardo O'Higgins","centroid":{"lat":-34.366862808528126,"lng":-71.33775526904924},"center":{"lat":-34.36141045149995,"lng":-71.32704090499996}},{"id":"id_86","name":"Name of 86","nome":"Quinta de Tilcoco","provincia":"Cachapoal","region":"Libertador General Bernardo O'Higgins","centroid":{"lat":-34.362830812523036,"lng":-71.00531827541533},"center":{"lat":-34.358062092999944,"lng":-71.00178095249996}},{"id":"id_87","name":"Name of 87","nome":"Rengo","provincia":"Cachapoal","region":"Libertador General Bernardo O'Higgins","centroid":{"lat":-34.45654292648978,"lng":-70.72541122257141},"center":{"lat":-34.44468797399995,"lng":-70.7133763935}},{"id":"id_88","name":"Name of 88","nome":"Requínoa","provincia":"Cachapoal","region":"Libertador General Bernardo O'Higgins","centroid":{"lat":-34.337064502221416,"lng":-70.66398925810736},"center":{"lat":-34.35311497999996,"lng":-70.68909248549997}},{"id":"id_89","name":"Name of 89","nome":"San Vicente","provincia":"Cachapoal","region":"Libertador General Bernardo O'Higgins","centroid":{"lat":-34.454883379612056,"lng":-71.11710344571512},"center":{"lat":-34.45427291349998,"lng":-71.12768321949997}},{"id":"id_90","name":"Name of 90","nome":"Pichilemu","provincia":"Cardenal Caro","region":"Libertador General Bernardo O'Higgins","centroid":{"lat":-34.36722330447053,"lng":-71.9062750915216},"center":{"lat":-34.36894639899995,"lng":-71.89908628449996}},{"id":"id_91","name":"Name of 91","nome":"La Estrella","provincia":"Cardenal Caro","region":"Libertador General Bernardo O'Higgins","centroid":{"lat":-34.225991473365326,"lng":-71.62218321503845},"center":{"lat":-34.20435787899996,"lng":-71.62212241849997}},{"id":"id_92","name":"Name of 92","nome":"Litueche","provincia":"Cardenal Caro","region":"Libertador General Bernardo O'Higgins","centroid":{"lat":-34.10989218955981,"lng":-71.7340188655598},"center":{"lat":-34.10620719299996,"lng":-71.73651647249997}},{"id":"id_93","name":"Name of 93","nome":"Marchihue","provincia":"Cardenal Caro","region":"Libertador General Bernardo O'Higgins","centroid":{"lat":-34.35572517746185,"lng":-71.6878981435809},"center":{"lat":-34.366976782999956,"lng":-71.66667543399996}},{"id":"id_94","name":"Name of 94","nome":"Navidad","provincia":"Cardenal Caro","region":"Libertador General Bernardo O'Higgins","centroid":{"lat":-33.99367803718747,"lng":-71.8012239281354},"center":{"lat":-34.00662520499995,"lng":-71.818396606}},{"id":"id_95","name":"Name of 95","nome":"Paredones","provincia":"Cardenal Caro","region":"Libertador General Bernardo O'Higgins","centroid":{"lat":-34.65321246762204,"lng":-71.90271792501743},"center":{"lat":-34.674393736999946,"lng":-71.91906468349995}},{"id":"id_96","name":"Name of 96","nome":"San Fernando","provincia":"Colchagua","region":"Libertador General Bernardo O'Higgins","centroid":{"lat":-34.74808596232189,"lng":-70.61012726782897},"center":{"lat":-34.741207925499964,"lng":-70.64759121049997}},{"id":"id_97","name":"Name of 97","nome":"Chépica","provincia":"Colchagua","region":"Libertador General Bernardo O'Higgins","centroid":{"lat":-34.79323346651788,"lng":-71.3331802979794},"center":{"lat":-34.79246909599996,"lng":-71.34619146099999}},{"id":"id_98","name":"Name of 98","nome":"Chimbarongo","provincia":"Colchagua","region":"Libertador General Bernardo O'Higgins","centroid":{"lat":-34.756614086732846,"lng":-70.984240280815},"center":{"lat":-34.739592610499955,"lng":-70.99927727499997}},{"id":"id_99","name":"Name of 99","nome":"Lolol","provincia":"Colchagua","region":"Libertador General Bernardo O'Higgins","centroid":{"lat":-34.76866719887758,"lng":-71.64670448639889},"center":{"lat":-34.78472778899996,"lng":-71.65219124099997}},{"id":"id_100","name":"Name of 100","nome":"Nancagua","provincia":"Colchagua","region":"Libertador General Bernardo O'Higgins","centroid":{"lat":-34.66818682312085,"lng":-71.19482690645052},"center":{"lat":-34.67070960549995,"lng":-71.21361462399997}},{"id":"id_101","name":"Name of 101","nome":"Palmilla","provincia":"Colchagua","region":"Libertador General Bernardo O'Higgins","centroid":{"lat":-34.521677975892445,"lng":-71.35942260413975},"center":{"lat":-34.52570377199996,"lng":-71.36693529549997}},{"id":"id_102","name":"Name of 102","nome":"Peralillo","provincia":"Colchagua","region":"Libertador General Bernardo O'Higgins","centroid":{"lat":-34.464128579321695,"lng":-71.5099564694956},"center":{"lat":-34.46294621299998,"lng":-71.50833182899996}},{"id":"id_103","name":"Name of 103","nome":"Placilla","provincia":"Colchagua","region":"Libertador General Bernardo O'Higgins","centroid":{"lat":-34.61424189034778,"lng":-71.0862926753768},"center":{"lat":-34.619168266999964,"lng":-71.08374464149995}},{"id":"id_104","name":"Name of 104","nome":"Pumanque","provincia":"Colchagua","region":"Libertador General Bernardo O'Higgins","centroid":{"lat":-34.59736126456857,"lng":-71.70170350571891},"center":{"lat":-34.59328652949995,"lng":-71.69721471599996}},{"id":"id_105","name":"Name of 105","nome":"Santa Cruz","provincia":"Colchagua","region":"Libertador General Bernardo O'Higgins","centroid":{"lat":-34.64171505772294,"lng":-71.39092393297292},"center":{"lat":-34.64155746299997,"lng":-71.37617068499995}},{"id":"id_106","name":"Name of 106","nome":"Talca","provincia":"Talca","region":"Maule","centroid":{"lat":-35.407511330767406,"lng":-71.60896919391858},"center":{"lat":-35.421176756999955,"lng":-71.60763102499996}},{"id":"id_107","name":"Name of 107","nome":"Constitución","provincia":"Talca","region":"Maule","centroid":{"lat":-35.404279892656064,"lng":-72.28743523376923},"center":{"lat":-35.348760538999954,"lng":-72.30743143999996}},{"id":"id_108","name":"Name of 108","nome":"Curepto","provincia":"Talca","region":"Maule","centroid":{"lat":-35.13301053430327,"lng":-71.94616260216586},"center":{"lat":-35.158135027999975,"lng":-71.94105875899996}},{"id":"id_109","name":"Name of 109","nome":"Empedrado","provincia":"Talca","region":"Maule","centroid":{"lat":-35.63359532209205,"lng":-72.25484423499996},"center":{"lat":-35.60614850099998,"lng":-72.24827445249994}},{"id":"id_110","name":"Name of 110","nome":"Maule","provincia":"Talca","region":"Maule","centroid":{"lat":-35.51135312299996,"lng":-71.71410146956812},"center":{"lat":-35.51540472399995,"lng":-71.72659277849996}},{"id":"id_111","name":"Name of 111","nome":"Pelarco","provincia":"Talca","region":"Maule","centroid":{"lat":-35.38636001630592,"lng":-71.34235447051493},"center":{"lat":-35.38754500199997,"lng":-71.35040681199996}},{"id":"id_112","name":"Name of 112","nome":"Pencahue","provincia":"Talca","region":"Maule","centroid":{"lat":-35.32345075181188,"lng":-71.84350631287157},"center":{"lat":-35.30948534899997,"lng":-71.83081260549994}},{"id":"id_113","name":"Name of 113","nome":"Río Claro","provincia":"Talca","region":"Maule","centroid":{"lat":-35.27793366303904,"lng":-71.26359139097207},"center":{"lat":-35.29353087849995,"lng":-71.24982273449996}},{"id":"id_114","name":"Name of 114","nome":"San Clemente","provincia":"Talca","region":"Maule","centroid":{"lat":-35.73033881223798,"lng":-70.81306028656601},"center":{"lat":-35.775318805999945,"lng":-70.948458561}},{"id":"id_115","name":"Name of 115","nome":"San Rafael","provincia":"Talca","region":"Maule","centroid":{"lat":-35.29621889710785,"lng":-71.49582203905746},"center":{"lat":-35.29246339449995,"lng":-71.50262209149997}},{"id":"id_116","name":"Name of 116","nome":"Cauquenes","provincia":"Cauquenes","region":"Maule","centroid":{"lat":-35.965874229541875,"lng":-72.30884794454938},"center":{"lat":-35.96768807799995,"lng":-72.31282689349996}},{"id":"id_117","name":"Name of 117","nome":"Chanco","provincia":"Cauquenes","region":"Maule","centroid":{"lat":-35.702617120012626,"lng":-72.46435338682278},"center":{"lat":-35.71110269199994,"lng":-72.48098500049997}},{"id":"id_118","name":"Name of 118","nome":"Pelluhue","provincia":"Cauquenes","region":"Maule","centroid":{"lat":-35.91995678769454,"lng":-72.60863186226605},"center":{"lat":-35.90011514199995,"lng":-72.60654500099994}},{"id":"id_119","name":"Name of 119","nome":"Curicó","provincia":"Curicó","region":"Maule","centroid":{"lat":-35.23169830636215,"lng":-70.82337894470336},"center":{"lat":-35.22403531699996,"lng":-70.87604808349994}},{"id":"id_120","name":"Name of 120","nome":"Hualañé","provincia":"Curicó","region":"Maule","centroid":{"lat":-34.93689595626791,"lng":-71.70957871059329},"center":{"lat":-34.960188972499964,"lng":-71.70309942449998}},{"id":"id_121","name":"Name of 121","nome":"Licantén","provincia":"Curicó","region":"Maule","centroid":{"lat":-34.96421560929997,"lng":-72.0276187682357},"center":{"lat":-34.968608726999946,"lng":-72.00995973349998}},{"id":"id_122","name":"Name of 122","nome":"Molina","provincia":"Curicó","region":"Maule","centroid":{"lat":-35.34210627660827,"lng":-70.9361912193333},"center":{"lat":-35.32837309299995,"lng":-70.94294403349994}},{"id":"id_123","name":"Name of 123","nome":"Rauco","provincia":"Curicó","region":"Maule","centroid":{"lat":-34.94015559814902,"lng":-71.43853130348441},"center":{"lat":-34.942827199999954,"lng":-71.42926340949998}},{"id":"id_124","name":"Name of 124","nome":"Romeral","provincia":"Curicó","region":"Maule","centroid":{"lat":-35.060665919326944,"lng":-70.71579035777455},"center":{"lat":-35.07860639399996,"lng":-70.78650057599995}},{"id":"id_125","name":"Name of 125","nome":"Sagrada Familia","provincia":"Curicó","region":"Maule","centroid":{"lat":-35.099626029628176,"lng":-71.49313569191668},"center":{"lat":-35.11191881149995,"lng":-71.47555619299996}},{"id":"id_126","name":"Name of 126","nome":"Teno","provincia":"Curicó","region":"Maule","centroid":{"lat":-34.8753900758395,"lng":-71.05339243415507},"center":{"lat":-34.89502726799998,"lng":-71.05630701149997}},{"id":"id_127","name":"Name of 127","nome":"Vichuquén","provincia":"Curicó","region":"Maule","centroid":{"lat":-34.85238173235859,"lng":-72.01728042659995},"center":{"lat":-34.82916601849996,"lng":-72.01342901699996}},{"id":"id_128","name":"Name of 128","nome":"Linares","provincia":"Linares","region":"Maule","centroid":{"lat":-35.946937350770256,"lng":-71.36700282088248},"center":{"lat":-35.96476500199995,"lng":-71.40119}},{"id":"id_129","name":"Name of 129","nome":"Colbún","provincia":"Linares","region":"Maule","centroid":{"lat":-36.06933776099486,"lng":-70.99178544790813},"center":{"lat":-36.055928001999945,"lng":-71.04426034199994}},{"id":"id_130","name":"Name of 130","nome":"Longaví","provincia":"Linares","region":"Maule","centroid":{"lat":-36.100054625535684,"lng":-71.44242061693949},"center":{"lat":-36.08420500149998,"lng":-71.44499814049996}},{"id":"id_131","name":"Name of 131","nome":"Parral","provincia":"Linares","region":"Maule","centroid":{"lat":-36.2387988643625,"lng":-71.66962609843958},"center":{"lat":-36.22931935149995,"lng":-71.60744800749998}},{"id":"id_132","name":"Name of 132","nome":"Retiro","provincia":"Linares","region":"Maule","centroid":{"lat":-36.00888393268745,"lng":-71.8286586157018},"center":{"lat":-36.01815000199997,"lng":-71.80115402549995}},{"id":"id_133","name":"Name of 133","nome":"San Javier","provincia":"Linares","region":"Maule","centroid":{"lat":-35.6495924886284,"lng":-71.89901810780273},"center":{"lat":-35.63744457349995,"lng":-71.88333846449996}},{"id":"id_134","name":"Name of 134","nome":"Villa Alegre","provincia":"Linares","region":"Maule","centroid":{"lat":-35.7021663930952,"lng":-71.69145124963094},"center":{"lat":-35.69403860699995,"lng":-71.672675}},{"id":"id_135","name":"Name of 135","nome":"Yerbas Buenas","provincia":"Linares","region":"Maule","centroid":{"lat":-35.71712298216976,"lng":-71.5750640510849},"center":{"lat":-35.68681999699993,"lng":-71.54753426049997}},{"id":"id_136","name":"Name of 136","nome":"Coronel","provincia":"Concepción","region":"Biobío","centroid":{"lat":-36.99191746996752,"lng":-73.44811874801366},"center":{"lat":-37.003680890499965,"lng":-73.27072913549998}},{"id":"id_137","name":"Name of 137","nome":"Florida","provincia":"Concepción","region":"Biobío","centroid":{"lat":-36.81730691897869,"lng":-72.7124113154521},"center":{"lat":-36.80812890799997,"lng":-72.70465823749998}},{"id":"id_138","name":"Name of 138","nome":"Lota","provincia":"Concepción","region":"Biobío","centroid":{"lat":-37.118611982204264,"lng":-73.11757971237631},"center":{"lat":-37.126004646999974,"lng":-73.11366165299997}},{"id":"id_139","name":"Name of 139","nome":"Santa Juana","provincia":"Concepción","region":"Biobío","centroid":{"lat":-37.303403747705566,"lng":-72.96509620108652},"center":{"lat":-37.25939163049995,"lng":-72.93061947399997}},{"id":"id_140","name":"Name of 140","nome":"Talcahuano","provincia":"Concepción","region":"Biobío","centroid":{"lat":-36.667322713745506,"lng":-73.1050351784982},"center":{"lat":-36.698699036499974,"lng":-73.08828303249996}},{"id":"id_141","name":"Name of 141","nome":"Lebu","provincia":"Arauco","region":"Biobío","centroid":{"lat":-38.048911221480076,"lng":-73.78332395253311},"center":{"lat":-37.93530499999997,"lng":-73.69626500449998}},{"id":"id_142","name":"Name of 142","nome":"Arauco","provincia":"Arauco","region":"Biobío","centroid":{"lat":-37.256643046649984,"lng":-73.53644246481029},"center":{"lat":-37.29735500099999,"lng":-73.37641876899997}},{"id":"id_143","name":"Name of 143","nome":"Cañete","provincia":"Arauco","region":"Biobío","centroid":{"lat":-37.863714592744564,"lng":-73.2904174522122},"center":{"lat":-37.91101500199994,"lng":-73.28167594999994}},{"id":"id_144","name":"Name of 144","nome":"Contulmo","provincia":"Arauco","region":"Biobío","centroid":{"lat":-38.040528209660195,"lng":-73.20870586586099},"center":{"lat":-38.067639487499974,"lng":-73.21243509199999}},{"id":"id_145","name":"Name of 145","nome":"Curanilahue","provincia":"Arauco","region":"Biobío","centroid":{"lat":-37.49551928629016,"lng":-73.23320528837534},"center":{"lat":-37.50788708899995,"lng":-73.24322841349996}},{"id":"id_146","name":"Name of 146","nome":"Los Alamos","provincia":"Arauco","region":"Biobío","centroid":{"lat":-37.67473722094889,"lng":-73.39136274394158},"center":{"lat":-37.70474771049996,"lng":-73.34797591449995}},{"id":"id_147","name":"Name of 147","nome":"Tirúa","provincia":"Arauco","region":"Biobío","centroid":{"lat":-38.33549899765383,"lng":-73.3904046094808},"center":{"lat":-38.302653695999965,"lng":-73.38281}},{"id":"id_148","name":"Name of 148","nome":"Los Angeles","provincia":"Biobío","region":"Biobío","centroid":{"lat":-37.41722392093276,"lng":-72.31980165442533},"center":{"lat":-37.42024908649995,"lng":-72.36097857349998}},{"id":"id_149","name":"Name of 149","nome":"Antuco","provincia":"Biobío","region":"Biobío","centroid":{"lat":-37.31874777490148,"lng":-71.4029253126818},"center":{"lat":-37.33172549549994,"lng":-71.49559729899994}},{"id":"id_150","name":"Name of 150","nome":"Cabrero","provincia":"Biobío","region":"Biobío","centroid":{"lat":-37.065741390266616,"lng":-72.4074859466484},"center":{"lat":-37.05832025099997,"lng":-72.35737326099996}},{"id":"id_151","name":"Name of 151","nome":"Laja","provincia":"Biobío","region":"Biobío","centroid":{"lat":-37.324342734015325,"lng":-72.58820612989226},"center":{"lat":-37.31171948849993,"lng":-72.58132070499997}},{"id":"id_152","name":"Name of 152","nome":"Mulchén","provincia":"Biobío","region":"Biobío","centroid":{"lat":-37.880293072644065,"lng":-72.03753565568674},"center":{"lat":-37.87315699749993,"lng":-72.05949657599999}},{"id":"id_153","name":"Name of 153","nome":"Nacimiento","provincia":"Biobío","region":"Biobío","centroid":{"lat":-37.48303904535514,"lng":-72.84265130424482},"center":{"lat":-37.453313324999954,"lng":-72.83176776499997}},{"id":"id_154","name":"Name of 154","nome":"Negrete","provincia":"Biobío","region":"Biobío","centroid":{"lat":-37.60246791226412,"lng":-72.57632407401883},"center":{"lat":-37.59511421999997,"lng":-72.56487719649996}},{"id":"id_155","name":"Name of 155","nome":"Quilaco","provincia":"Biobío","region":"Biobío","centroid":{"lat":-37.96040475306157,"lng":-71.73291813619937},"center":{"lat":-37.98110768299995,"lng":-71.78250234449996}},{"id":"id_156","name":"Name of 156","nome":"Quilleco","provincia":"Biobío","region":"Biobío","centroid":{"lat":-37.463790131106386,"lng":-71.86565736360073},"center":{"lat":-37.39531581399996,"lng":-71.82024571799997}},{"id":"id_157","name":"Name of 157","nome":"San Rosendo","provincia":"Biobío","region":"Biobío","centroid":{"lat":-37.20115973402663,"lng":-72.73541792798665},"center":{"lat":-37.219593769499966,"lng":-72.72861209949997}},{"id":"id_158","name":"Name of 158","nome":"Santa Bárbara","provincia":"Biobío","region":"Biobío","centroid":{"lat":-37.60690968195683,"lng":-71.71212136417257},"center":{"lat":-37.63400617199994,"lng":-71.76331090749997}},{"id":"id_159","name":"Name of 159","nome":"Tucapel","provincia":"Biobío","region":"Biobío","centroid":{"lat":-37.213924244593265,"lng":-71.75509588653112},"center":{"lat":-37.20842680599995,"lng":-71.77489944549995}},{"id":"id_160","name":"Name of 160","nome":"Yumbel","provincia":"Biobío","region":"Biobío","centroid":{"lat":-37.09079606370949,"lng":-72.63222448189623},"center":{"lat":-37.08375282849994,"lng":-72.60769838249996}},{"id":"id_161","name":"Name of 161","nome":"Alto Biobío","provincia":"Biobío","region":"Biobío","centroid":{"lat":-37.866643191754974,"lng":-71.31596560693283},"center":{"lat":-37.835609625499956,"lng":-71.33691631699998}},{"id":"id_162","name":"Name of 162","nome":"Temuco","provincia":"Cautín","region":"La Araucanía","centroid":{"lat":-38.665117264450664,"lng":-72.67977963576757},"center":{"lat":-38.665435537499945,"lng":-72.65199269249999}},{"id":"id_163","name":"Name of 163","nome":"Carahue","provincia":"Cautín","region":"La Araucanía","centroid":{"lat":-38.615130613280066,"lng":-73.22994877497592},"center":{"lat":-38.648016632499974,"lng":-73.28502500049999}},{"id":"id_164","name":"Name of 164","nome":"Cunco","provincia":"Cautín","region":"La Araucanía","centroid":{"lat":-38.961250569273,"lng":-71.98594160402293},"center":{"lat":-38.95559192249996,"lng":-71.94520610299998}},{"id":"id_165","name":"Name of 165","nome":"Curarrehue","provincia":"Cautín","region":"La Araucanía","centroid":{"lat":-39.322829242558726,"lng":-71.54297778239996},"center":{"lat":-39.30426224299998,"lng":-71.55985776999995}},{"id":"id_166","name":"Name of 166","nome":"Freire","provincia":"Cautín","region":"La Araucanía","centroid":{"lat":-38.93568328034259,"lng":-72.59112213318976},"center":{"lat":-38.972507267499964,"lng":-72.60742522949997}},{"id":"id_167","name":"Name of 167","nome":"Galvarino","provincia":"Cautín","region":"La Araucanía","centroid":{"lat":-38.452096865018646,"lng":-72.80711294370093},"center":{"lat":-38.457038543499976,"lng":-72.80745754249995}},{"id":"id_168","name":"Name of 168","nome":"Gorbea","provincia":"Cautín","region":"La Araucanía","centroid":{"lat":-39.17273465753482,"lng":-72.71724035926356},"center":{"lat":-39.16041085799995,"lng":-72.66557059749996}},{"id":"id_169","name":"Name of 169","nome":"Lautaro","provincia":"Cautín","region":"La Araucanía","centroid":{"lat":-38.54387878311322,"lng":-72.28758754323951},"center":{"lat":-38.54474978649995,"lng":-72.24586999949997}},{"id":"id_170","name":"Name of 170","nome":"Loncoche","provincia":"Cautín","region":"La Araucanía","centroid":{"lat":-39.37260929867515,"lng":-72.57515909694011},"center":{"lat":-39.36228649799997,"lng":-72.60203607299998}},{"id":"id_171","name":"Name of 171","nome":"Melipeuco","provincia":"Cautín","region":"La Araucanía","centroid":{"lat":-38.83393758207613,"lng":-71.59153854365707},"center":{"lat":-38.803635110499954,"lng":-71.62077966799995}},{"id":"id_172","name":"Name of 172","nome":"Nueva Imperial","provincia":"Cautín","region":"La Araucanía","centroid":{"lat":-38.72859693926336,"lng":-73.01055114449551},"center":{"lat":-38.70440752349995,"lng":-72.96305000099997}},{"id":"id_173","name":"Name of 173","nome":"Padre Las Casas","provincia":"Cautín","region":"La Araucanía","centroid":{"lat":-38.81762688100851,"lng":-72.53453625759396},"center":{"lat":-38.79624846199994,"lng":-72.58103942299996}},{"id":"id_174","name":"Name of 174","nome":"Perquenco","provincia":"Cautín","region":"La Araucanía","centroid":{"lat":-38.43919063152628,"lng":-72.46543288595485},"center":{"lat":-38.43221767099996,"lng":-72.43714590699994}},{"id":"id_175","name":"Name of 175","nome":"Pitrufquén","provincia":"Cautín","region":"La Araucanía","centroid":{"lat":-39.08092404591697,"lng":-72.68884685061133},"center":{"lat":-39.104720642499956,"lng":-72.65269974799997}},{"id":"id_176","name":"Name of 176","nome":"Pucón","provincia":"Cautín","region":"La Araucanía","centroid":{"lat":-39.269264849248856,"lng":-71.7269166571066},"center":{"lat":-39.28751354249994,"lng":-71.78527282949997}},{"id":"id_177","name":"Name of 177","nome":"Saavedra","provincia":"Cautín","region":"La Araucanía","centroid":{"lat":-38.83688888960461,"lng":-73.26171616677905},"center":{"lat":-38.83033437749995,"lng":-73.29836064449998}},{"id":"id_178","name":"Name of 178","nome":"Teodoro Schmidt","provincia":"Cautín","region":"La Araucanía","centroid":{"lat":-39.00294470083214,"lng":-73.12327115817482},"center":{"lat":-39.070404648999954,"lng":-73.10196312799997}},{"id":"id_179","name":"Name of 179","nome":"Toltén","provincia":"Cautín","region":"La Araucanía","centroid":{"lat":-39.2139719744824,"lng":-73.06645326255773},"center":{"lat":-39.214529938499965,"lng":-73.04741502049998}},{"id":"id_180","name":"Name of 180","nome":"Vilcún","provincia":"Cautín","region":"La Araucanía","centroid":{"lat":-38.71390607575138,"lng":-72.18364941490461},"center":{"lat":-38.70601530349995,"lng":-72.10114441849998}},{"id":"id_181","name":"Name of 181","nome":"Villarrica","provincia":"Cautín","region":"La Araucanía","centroid":{"lat":-39.28033174032053,"lng":-72.22352232191977},"center":{"lat":-39.29539123199996,"lng":-72.17276799899997}},{"id":"id_182","name":"Name of 182","nome":"Cholchol","provincia":"Cautín","region":"La Araucanía","centroid":{"lat":-38.575715182594536,"lng":-72.9015331165743},"center":{"lat":-38.585575001999956,"lng":-72.909865}},{"id":"id_183","name":"Name of 183","nome":"Angol","provincia":"Malleco","region":"La Araucanía","centroid":{"lat":-37.78403024220055,"lng":-72.77149387391184},"center":{"lat":-37.80272001049997,"lng":-72.80396134449995}},{"id":"id_184","name":"Name of 184","nome":"Collipulli","provincia":"Malleco","region":"La Araucanía","centroid":{"lat":-38.010767907553266,"lng":-72.14242826715848},"center":{"lat":-37.98829532199997,"lng":-72.1157367745}},{"id":"id_185","name":"Name of 185","nome":"Curacautín","provincia":"Malleco","region":"La Araucanía","centroid":{"lat":-38.42605010589956,"lng":-71.77369349382529},"center":{"lat":-38.431815001499956,"lng":-71.78017129599999}},{"id":"id_186","name":"Name of 186","nome":"Ercilla","provincia":"Malleco","region":"La Araucanía","centroid":{"lat":-38.089678310782375,"lng":-72.3101312335417},"center":{"lat":-38.061367658999956,"lng":-72.28090102399997}},{"id":"id_187","name":"Name of 187","nome":"Lonquimay","provincia":"Malleco","region":"La Araucanía","centroid":{"lat":-38.51479512412292,"lng":-71.27095439777248},"center":{"lat":-38.497367129499935,"lng":-71.23496627249997}},{"id":"id_188","name":"Name of 188","nome":"Los Sauces","provincia":"Malleco","region":"La Araucanía","centroid":{"lat":-37.9902912510995,"lng":-72.79573970000448},"center":{"lat":-37.98615000199996,"lng":-72.79700500099995}},{"id":"id_189","name":"Name of 189","nome":"Lumaco","provincia":"Malleco","region":"La Araucanía","centroid":{"lat":-38.29603570936325,"lng":-73.03756003139566},"center":{"lat":-38.27521483899994,"lng":-73.06363503649996}},{"id":"id_190","name":"Name of 190","nome":"Purén","provincia":"Malleco","region":"La Araucanía","centroid":{"lat":-37.99260748572428,"lng":-73.04851431802156},"center":{"lat":-37.997060001999955,"lng":-73.0479581155}},{"id":"id_191","name":"Name of 191","nome":"Renaico","provincia":"Malleco","region":"La Araucanía","centroid":{"lat":-37.715084769911904,"lng":-72.58009894819496},"center":{"lat":-37.72761914649996,"lng":-72.584855}},{"id":"id_192","name":"Name of 192","nome":"Traiguén","provincia":"Malleco","region":"La Araucanía","centroid":{"lat":-38.25764462436015,"lng":-72.69587861327965},"center":{"lat":-38.24854541999997,"lng":-72.67178596399998}},{"id":"id_193","name":"Name of 193","nome":"Victoria","provincia":"Malleco","region":"La Araucanía","centroid":{"lat":-38.28387204465213,"lng":-72.2401804063347},"center":{"lat":-38.29918006099996,"lng":-72.23288}},{"id":"id_194","name":"Name of 194","nome":"Puerto Montt","provincia":"Llanquihue","region":"Los Lagos","centroid":{"lat":-41.522933491868805,"lng":-72.86791244114367},"center":{"lat":-41.51354500149995,"lng":-72.85742706999994}},{"id":"id_195","name":"Name of 195","nome":"Calbuco","provincia":"Llanquihue","region":"Los Lagos","centroid":{"lat":-41.779615614936695,"lng":-73.1329047179629},"center":{"lat":-41.74274714549995,"lng":-73.21015635399999}},{"id":"id_196","name":"Name of 196","nome":"Cochamó","provincia":"Llanquihue","region":"Los Lagos","centroid":{"lat":-41.71888781018621,"lng":-72.24515376422546},"center":{"lat":-41.75229644899994,"lng":-72.18671953149996}},{"id":"id_197","name":"Name of 197","nome":"Fresia","provincia":"Llanquihue","region":"Los Lagos","centroid":{"lat":-41.1573128869654,"lng":-73.6720804052726},"center":{"lat":-41.15309045649997,"lng":-73.60921369699994}},{"id":"id_198","name":"Name of 198","nome":"Frutillar","provincia":"Llanquihue","region":"Los Lagos","centroid":{"lat":-41.05849824107823,"lng":-73.22965380235537},"center":{"lat":-41.090053876999974,"lng":-73.09736116849996}},{"id":"id_199","name":"Name of 199","nome":"Los Muermos","provincia":"Llanquihue","region":"Los Lagos","centroid":{"lat":-41.39419033858343,"lng":-73.76034848055833},"center":{"lat":-41.38668137849996,"lng":-73.55493896599995}},{"id":"id_200","name":"Name of 200","nome":"Llanquihue","provincia":"Llanquihue","region":"Los Lagos","centroid":{"lat":-41.21731520876571,"lng":-73.2159252528288},"center":{"lat":-41.22115650549998,"lng":-73.10893694949998}},{"id":"id_201","name":"Name of 201","nome":"Maullín","provincia":"Llanquihue","region":"Los Lagos","centroid":{"lat":-41.60885033976272,"lng":-73.59883192886043},"center":{"lat":-41.633840167499955,"lng":-73.51780798849998}},{"id":"id_202","name":"Name of 202","nome":"Puerto Varas","provincia":"Llanquihue","region":"Los Lagos","centroid":{"lat":-41.23961352048992,"lng":-72.44342688557332},"center":{"lat":-41.12992001849997,"lng":-72.58752007199996}},{"id":"id_203","name":"Name of 203","nome":"Castro","provincia":"Chiloé","region":"Los Lagos","centroid":{"lat":-42.48994383348649,"lng":-73.80000135339863},"center":{"lat":-42.50009778049997,"lng":-73.79748999849997}},{"id":"id_204","name":"Name of 204","nome":"Ancud","provincia":"Chiloé","region":"Los Lagos","centroid":{"lat":-41.95364583800816,"lng":-73.97835633298504},"center":{"lat":-42.01042000149994,"lng":-73.81578499849996}},{"id":"id_205","name":"Name of 205","nome":"Chonchi","provincia":"Chiloé","region":"Los Lagos","centroid":{"lat":-42.69834520721406,"lng":-74.0221758213035},"center":{"lat":-42.684380001999955,"lng":-73.90665999999996}},{"id":"id_206","name":"Name of 206","nome":"Curaco de Vélez","provincia":"Chiloé","region":"Los Lagos","centroid":{"lat":-42.432138360424204,"lng":-73.57555209616662},"center":{"lat":-42.427420000999945,"lng":-73.58334999899995}},{"id":"id_207","name":"Name of 207","nome":"Dalcahue","provincia":"Chiloé","region":"Los Lagos","centroid":{"lat":-42.292275325746985,"lng":-73.92930603607292},"center":{"lat":-42.31230172649998,"lng":-73.77207999899997}},{"id":"id_208","name":"Name of 208","nome":"Puqueldón","provincia":"Chiloé","region":"Los Lagos","centroid":{"lat":-42.63567611209872,"lng":-73.63546512245675},"center":{"lat":-42.63840000099995,"lng":-73.63194499899998}},{"id":"id_209","name":"Name of 209","nome":"Queilén","provincia":"Chiloé","region":"Los Lagos","centroid":{"lat":-42.874761918751204,"lng":-73.57526591704392},"center":{"lat":-42.880430001499946,"lng":-73.53828500099996}},{"id":"id_210","name":"Name of 210","nome":"Quellón","provincia":"Chiloé","region":"Los Lagos","centroid":{"lat":-43.323909161310965,"lng":-74.08486635836623},"center":{"lat":-43.250790000999956,"lng":-74.1416800005}},{"id":"id_211","name":"Name of 211","nome":"Quemchi","provincia":"Chiloé","region":"Los Lagos","centroid":{"lat":-42.24382474328335,"lng":-73.29802960957943},"center":{"lat":-42.184797500999935,"lng":-73.32087000049998}},{"id":"id_212","name":"Name of 212","nome":"Quinchao","provincia":"Chiloé","region":"Los Lagos","centroid":{"lat":-42.51498597749628,"lng":-73.3428029500036},"center":{"lat":-42.51388000099996,"lng":-73.36846999099998}},{"id":"id_213","name":"Name of 213","nome":"Osorno","provincia":"Osorno","region":"Los Lagos","centroid":{"lat":-40.59891433576898,"lng":-73.12050955816956},"center":{"lat":-40.603783082499945,"lng":-73.09308751349998}},{"id":"id_214","name":"Name of 214","nome":"Puerto Octay","provincia":"Osorno","region":"Los Lagos","centroid":{"lat":-40.867502057575635,"lng":-72.599705103796},"center":{"lat":-40.921642836499956,"lng":-72.52465378499997}},{"id":"id_215","name":"Name of 215","nome":"Purranque","provincia":"Osorno","region":"Los Lagos","centroid":{"lat":-40.921715671938856,"lng":-73.60928798020478},"center":{"lat":-40.93362767499994,"lng":-73.43749995499994}},{"id":"id_216","name":"Name of 216","nome":"Puyehue","provincia":"Osorno","region":"Los Lagos","centroid":{"lat":-40.682165421118086,"lng":-72.38975612557643},"center":{"lat":-40.710030421499965,"lng":-72.36099483549998}},{"id":"id_217","name":"Name of 217","nome":"Río Negro","provincia":"Osorno","region":"Los Lagos","centroid":{"lat":-40.77674606471919,"lng":-73.42344516831317},"center":{"lat":-40.76709000199995,"lng":-73.42785277849998}},{"id":"id_218","name":"Name of 218","nome":"San Juan de la Costa","provincia":"Osorno","region":"Los Lagos","centroid":{"lat":-40.500869393142175,"lng":-73.61292581021773},"center":{"lat":-40.49238521999996,"lng":-73.55547009699997}},{"id":"id_219","name":"Name of 219","nome":"San Pablo","provincia":"Osorno","region":"Los Lagos","centroid":{"lat":-40.44623090839221,"lng":-73.13478637960773},"center":{"lat":-40.422890594999956,"lng":-73.15413909899996}},{"id":"id_220","name":"Name of 220","nome":"Chaitén","provincia":"Palena","region":"Los Lagos","centroid":{"lat":-43.090166826527664,"lng":-72.76730871878233},"center":{"lat":-42.992587798499954,"lng":-72.61194475299997}},{"id":"id_221","name":"Name of 221","nome":"Futaleufú","provincia":"Palena","region":"Los Lagos","centroid":{"lat":-43.167904506118454,"lng":-72.00269643231013},"center":{"lat":-43.16269767799997,"lng":-71.98562237399997}},{"id":"id_222","name":"Name of 222","nome":"Hualaihué","provincia":"Palena","region":"Los Lagos","centroid":{"lat":-42.091259989515116,"lng":-72.48998273396306},"center":{"lat":-42.19743459349996,"lng":-72.44427904399998}},{"id":"id_223","name":"Name of 223","nome":"Palena","provincia":"Palena","region":"Los Lagos","centroid":{"lat":-43.67633435390741,"lng":-71.96163436297516},"center":{"lat":-43.65219473799996,"lng":-71.95191202249998}},{"id":"id_224","name":"Name of 224","nome":"Coihaique","provincia":"Coihaique","region":"Aysén del General Carlos Ibáñez del Campo","centroid":{"lat":-45.55359505319864,"lng":-72.02226417505923},"center":{"lat":-45.485225970499954,"lng":-72.12368584099994}},{"id":"id_225","name":"Name of 225","nome":"Lago Verde","provincia":"Coihaique","region":"Aysén del General Carlos Ibáñez del Campo","centroid":{"lat":-44.4821262175138,"lng":-71.84983881413571},"center":{"lat":-44.40272302049996,"lng":-71.74351991349994}},{"id":"id_226","name":"Name of 226","nome":"Aisén","provincia":"Aisén","region":"Aysén del General Carlos Ibáñez del Campo","centroid":{"lat":-45.82802896236696,"lng":-74.27933607711813},"center":{"lat":-46.76051494999996,"lng":-73.80762360849997}},{"id":"id_227","name":"Name of 227","nome":"Cisnes","provincia":"Aisén","region":"Aysén del General Carlos Ibáñez del Campo","centroid":{"lat":-44.480451612688235,"lng":-73.7738371566949},"center":{"lat":-44.374283288999976,"lng":-73.62800679549999}},{"id":"id_228","name":"Name of 228","nome":"Guaitecas","provincia":"Aisén","region":"Aysén del General Carlos Ibáñez del Campo","centroid":{"lat":-43.960907896888095,"lng":-73.77237457254792},"center":{"lat":-43.94492500149997,"lng":-73.809405}},{"id":"id_229","name":"Name of 229","nome":"Cochrane","provincia":"Capitán Prat","region":"Aysén del General Carlos Ibáñez del Campo","centroid":{"lat":-47.379578859034346,"lng":-72.68563231318193},"center":{"lat":-47.397855031499944,"lng":-72.67925160249996}},{"id":"id_230","name":"Name of 230","nome":"O'Higgins","provincia":"Capitán Prat","region":"Aysén del General Carlos Ibáñez del Campo","centroid":{"lat":-48.242499983650504,"lng":-72.6854105226421},"center":{"lat":-48.446117849499956,"lng":-72.87278606049995}},{"id":"id_231","name":"Name of 231","nome":"Tortel","provincia":"Capitán Prat","region":"Aysén del General Carlos Ibáñez del Campo","centroid":{"lat":-47.977829621839945,"lng":-74.7073242241668},"center":{"lat":-47.974617128999974,"lng":-74.35885768649996}},{"id":"id_232","name":"Name of 232","nome":"Chile Chico","provincia":"General Carrera","region":"Aysén del General Carlos Ibáñez del Campo","centroid":{"lat":-46.805647594047265,"lng":-72.57035487667449},"center":{"lat":-46.76574785449995,"lng":-72.52847172699995}},{"id":"id_233","name":"Name of 233","nome":"Río Ibáñez","provincia":"General Carrera","region":"Aysén del General Carlos Ibáñez del Campo","centroid":{"lat":-46.2371400098296,"lng":-72.5650989494314},"center":{"lat":-46.30105558099996,"lng":-72.42519623999996}},{"id":"id_234","name":"Name of 234","nome":"Punta Arenas","provincia":"Magallanes","region":"Magallanes y de la Antártica Chilena","centroid":{"lat":-53.77845364105465,"lng":-72.88756728061712},"center":{"lat":-53.644804450499976,"lng":-72.48153356249995}},{"id":"id_235","name":"Name of 235","nome":"Laguna Blanca","provincia":"Magallanes","region":"Magallanes y de la Antártica Chilena","centroid":{"lat":-52.65648391534688,"lng":-71.21041952937755},"center":{"lat":-52.40716414249994,"lng":-71.27120897299997}},{"id":"id_236","name":"Name of 236","nome":"San Gregorio","provincia":"Magallanes","region":"Magallanes y de la Antártica Chilena","centroid":{"lat":-52.49835987610796,"lng":-69.79865009527703},"center":{"lat":-52.38023224549994,"lng":-69.66728734399996}},{"id":"id_237","name":"Name of 237","nome":"Cabo de Hornos","provincia":"Antártica Chilena","region":"Magallanes y de la Antártica Chilena","centroid":{"lat":-55.104644297356344,"lng":-69.85072791857274},"center":{"lat":-55.449822488999956,"lng":-69.37271983949998}},{"id":"id_238","name":"Name of 238","nome":"Porvenir","provincia":"Tierra del Fuego","region":"Magallanes y de la Antártica Chilena","centroid":{"lat":-53.29545388601313,"lng":-69.95033361314846},"center":{"lat":-53.368008560999954,"lng":-69.53689988949995}},{"id":"id_239","name":"Name of 239","nome":"Primavera","provincia":"Tierra del Fuego","region":"Magallanes y de la Antártica Chilena","centroid":{"lat":-52.70944974625104,"lng":-69.60137480890907},"center":{"lat":-52.748682949499965,"lng":-69.52207084749995}},{"id":"id_240","name":"Name of 240","nome":"Timaukel","provincia":"Tierra del Fuego","region":"Magallanes y de la Antártica Chilena","centroid":{"lat":-54.404303305223884,"lng":-69.99462467492312},"center":{"lat":-54.20227912349995,"lng":-69.86019986849996}},{"id":"id_241","name":"Name of 241","nome":"Natales","provincia":"Última Esperanza","region":"Magallanes y de la Antártica Chilena","centroid":{"lat":-51.31529098069342,"lng":-74.42800200532949},"center":{"lat":-50.71294395299995,"lng":-73.68452066249995}},{"id":"id_242","name":"Name of 242","nome":"Torres del Paine","provincia":"Última Esperanza","region":"Magallanes y de la Antártica Chilena","centroid":{"lat":-51.024766581646105,"lng":-72.70814329044059},"center":{"lat":-51.08220823599996,"lng":-72.85702041499997}},{"id":"id_243","name":"Name of 243","nome":"Lo Barnechea","provincia":"Santiago","region":"Metropolitana de Santiago","centroid":{"lat":-33.29649218604968,"lng":-70.37440782071819},"center":{"lat":-33.29391922649995,"lng":-70.39006013999995}},{"id":"id_244","name":"Name of 244","nome":"Pirque","provincia":"Cordillera","region":"Metropolitana de Santiago","centroid":{"lat":-33.71000949287496,"lng":-70.50125869454686},"center":{"lat":-33.72081045899995,"lng":-70.52759587449998}},{"id":"id_245","name":"Name of 245","nome":"San José de Maipo","provincia":"Cordillera","region":"Metropolitana de Santiago","centroid":{"lat":-33.70205373427911,"lng":-70.09481421877733},"center":{"lat":-33.67118928699995,"lng":-70.13519676499996}},{"id":"id_246","name":"Name of 246","nome":"Paine","provincia":"Maipo","region":"Metropolitana de Santiago","centroid":{"lat":-33.862818640337146,"lng":-70.74555219354646},"center":{"lat":-33.862843400999964,"lng":-70.73146074699999}},{"id":"id_247","name":"Name of 247","nome":"Melipilla","provincia":"Melipilla","region":"Metropolitana de Santiago","centroid":{"lat":-33.72849683407113,"lng":-71.18983808049109},"center":{"lat":-33.75142864749995,"lng":-71.18777958899997}},{"id":"id_248","name":"Name of 248","nome":"Alhué","provincia":"Melipilla","region":"Metropolitana de Santiago","centroid":{"lat":-34.03035824437637,"lng":-71.03794481129769},"center":{"lat":-34.03642271199996,"lng":-71.04677092649996}},{"id":"id_249","name":"Name of 249","nome":"Curacaví","provincia":"Melipilla","region":"Metropolitana de Santiago","centroid":{"lat":-33.36274699326031,"lng":-71.07814322365083},"center":{"lat":-33.37885161799994,"lng":-71.09912703499995}},{"id":"id_250","name":"Name of 250","nome":"María Pinto","provincia":"Melipilla","region":"Metropolitana de Santiago","centroid":{"lat":-33.49910549596796,"lng":-71.21204409737594},"center":{"lat":-33.49633318699995,"lng":-71.18299501249996}},{"id":"id_251","name":"Name of 251","nome":"San Pedro","provincia":"Melipilla","region":"Metropolitana de Santiago","centroid":{"lat":-33.94989273065552,"lng":-71.44395234602776},"center":{"lat":-33.91994792999998,"lng":-71.46128650499998}},{"id":"id_252","name":"Name of 252","nome":"Isla de Maipo","provincia":"Talagante","region":"Metropolitana de Santiago","centroid":{"lat":-33.75176388499997,"lng":-70.9462008051739},"center":{"lat":-33.75094773299995,"lng":-70.96983152599995}},{"id":"id_253","name":"Name of 253","nome":"Valdivia","provincia":"Valdivia","region":"Los Ríos","centroid":{"lat":-39.840688589279125,"lng":-73.15777078795756},"center":{"lat":-39.83403659099997,"lng":-73.16571310799999}},{"id":"id_254","name":"Name of 254","nome":"Corral","provincia":"Valdivia","region":"Los Ríos","centroid":{"lat":-39.96660665435307,"lng":-73.39530996524371},"center":{"lat":-39.98372500149995,"lng":-73.42330785599995}},{"id":"id_255","name":"Name of 255","nome":"Lanco","provincia":"Valdivia","region":"Los Ríos","centroid":{"lat":-39.515669896765004,"lng":-72.61986666191801},"center":{"lat":-39.52533154699995,"lng":-72.5875149995}},{"id":"id_256","name":"Name of 256","nome":"Los Lagos","provincia":"Valdivia","region":"Los Ríos","centroid":{"lat":-39.86264738293969,"lng":-72.58612357551085},"center":{"lat":-39.85083410349995,"lng":-72.50395}},{"id":"id_257","name":"Name of 257","nome":"Máfil","provincia":"Valdivia","region":"Los Ríos","centroid":{"lat":-39.685566031262276,"lng":-72.80966443521721},"center":{"lat":-39.70496500149997,"lng":-72.84771230099997}},{"id":"id_258","name":"Name of 258","nome":"Mariquina","provincia":"Valdivia","region":"Los Ríos","centroid":{"lat":-39.49994923159675,"lng":-73.04905470352531},"center":{"lat":-39.505360464499944,"lng":-72.96269000049998}},{"id":"id_259","name":"Name of 259","nome":"Paillaco","provincia":"Valdivia","region":"Los Ríos","centroid":{"lat":-40.06823288218962,"lng":-72.87462224206551},"center":{"lat":-40.06206466749998,"lng":-72.85695553699998}},{"id":"id_260","name":"Name of 260","nome":"Panguipulli","provincia":"Valdivia","region":"Los Ríos","centroid":{"lat":-39.74172212713159,"lng":-72.01868400321936},"center":{"lat":-39.768609042499975,"lng":-72.09835933249997}},{"id":"id_261","name":"Name of 261","nome":"La Unión","provincia":"Ranco","region":"Los Ríos","centroid":{"lat":-40.18046368620274,"lng":-73.14788680805752},"center":{"lat":-40.170316832499964,"lng":-73.1184699995}},{"id":"id_262","name":"Name of 262","nome":"Futrono","provincia":"Ranco","region":"Los Ríos","centroid":{"lat":-40.11433942039412,"lng":-72.0949692313545},"center":{"lat":-40.12542370099999,"lng":-72.14711023699996}},{"id":"id_263","name":"Name of 263","nome":"Lago Ranco","provincia":"Ranco","region":"Los Ríos","centroid":{"lat":-40.36888099438222,"lng":-72.20935864569795},"center":{"lat":-40.384952184999946,"lng":-72.16979150899996}},{"id":"id_264","name":"Name of 264","nome":"Río Bueno","provincia":"Ranco","region":"Los Ríos","centroid":{"lat":-40.4798469368844,"lng":-72.50931802304446},"center":{"lat":-40.46879202449995,"lng":-72.50518913249996}},{"id":"id_265","name":"Name of 265","nome":"Arica","provincia":"Arica","region":"Arica y Parinacota","centroid":{"lat":-18.502580110799066,"lng":-69.97771457975891},"center":{"lat":-18.475896646999956,"lng":-69.93396882949997}},{"id":"id_266","name":"Name of 266","nome":"Camarones","provincia":"Arica","region":"Arica y Parinacota","centroid":{"lat":-18.968592634378542,"lng":-69.64939021195354},"center":{"lat":-18.96325327149995,"lng":-69.71094773399997}},{"id":"id_267","name":"Name of 267","nome":"Putre","provincia":"Parinacota","region":"Arica y Parinacota","centroid":{"lat":-18.45215654285071,"lng":-69.25972818433327},"center":{"lat":-18.49389185849995,"lng":-69.30377034499995}},{"id":"id_268","name":"Name of 268","nome":"General Lagos","provincia":"Parinacota","region":"Arica y Parinacota","centroid":{"lat":-17.95092374733935,"lng":-69.52738075823021},"center":{"lat":-17.831800675999972,"lng":-69.55409354999995}},{"id":"id_269","name":"Name of 269","nome":"Chillán","provincia":"Diguillín","region":"Ñuble","centroid":{"lat":-36.619104876078886,"lng":-72.16327914087219},"center":{"lat":-36.62928558099995,"lng":-72.16432922499996}},{"id":"id_270","name":"Name of 270","nome":"Bulnes","provincia":"Diguillín","region":"Ñuble","centroid":{"lat":-36.77354659919997,"lng":-72.28883306868967},"center":{"lat":-36.79464553499997,"lng":-72.28021674049995}},{"id":"id_271","name":"Name of 271","nome":"El Carmen","provincia":"Diguillín","region":"Ñuble","centroid":{"lat":-36.925018630747445,"lng":-71.88910999738887},"center":{"lat":-36.920320852999936,"lng":-71.90164999999999}},{"id":"id_272","name":"Name of 272","nome":"Pemuco","provincia":"Diguillín","region":"Ñuble","centroid":{"lat":-36.99031633082494,"lng":-72.02341112016792},"center":{"lat":-36.965000001999954,"lng":-71.98972054349997}},{"id":"id_273","name":"Name of 273","nome":"Pinto","provincia":"Diguillín","region":"Ñuble","centroid":{"lat":-36.91110595578389,"lng":-71.54702789421606},"center":{"lat":-36.89094898899995,"lng":-71.55023765149997}},{"id":"id_274","name":"Name of 274","nome":"Quillón","provincia":"Diguillín","region":"Ñuble","centroid":{"lat":-36.8232617538766,"lng":-72.52194447899348},"center":{"lat":-36.80872975649996,"lng":-72.51691234999997}},{"id":"id_275","name":"Name of 275","nome":"San Ignacio","provincia":"Diguillín","region":"Ñuble","centroid":{"lat":-36.81912333755793,"lng":-71.99750544501447},"center":{"lat":-36.81596968849993,"lng":-71.97969}},{"id":"id_276","name":"Name of 276","nome":"Yungay","provincia":"Diguillín","region":"Ñuble","centroid":{"lat":-37.09698798504998,"lng":-71.93554408903925},"center":{"lat":-37.09783129699994,"lng":-71.91028205049994}},{"id":"id_277","name":"Name of 277","nome":"Quirihue","provincia":"Itata","region":"Ñuble","centroid":{"lat":-36.23632233941699,"lng":-72.55183748250637},"center":{"lat":-36.24577581549997,"lng":-72.52106047349999}},{"id":"id_278","name":"Name of 278","nome":"Cobquecura","provincia":"Itata","region":"Ñuble","centroid":{"lat":-36.180490091316905,"lng":-72.70318947935267},"center":{"lat":-36.182122893999946,"lng":-72.70198900299998}},{"id":"id_279","name":"Name of 279","nome":"Coelemu","provincia":"Itata","region":"Ñuble","centroid":{"lat":-36.49840216844639,"lng":-72.75553732387493},"center":{"lat":-36.50417997899996,"lng":-72.74573945749995}},{"id":"id_280","name":"Name of 280","nome":"Ninhue","provincia":"Itata","region":"Ñuble","centroid":{"lat":-36.35644795935564,"lng":-72.43001138597316},"center":{"lat":-36.353427132499974,"lng":-72.41455594949994}},{"id":"id_281","name":"Name of 281","nome":"Portezuelo","provincia":"Itata","region":"Ñuble","centroid":{"lat":-36.53489345930552,"lng":-72.48079741045365},"center":{"lat":-36.537980001999955,"lng":-72.48891499999999}},{"id":"id_282","name":"Name of 282","nome":"Ranquil","provincia":"Itata","region":"Ñuble","centroid":{"lat":-36.65488793065132,"lng":-72.58162220158711},"center":{"lat":-36.639138816999974,"lng":-72.59174794499995}},{"id":"id_283","name":"Name of 283","nome":"Treguaco","provincia":"Itata","region":"Ñuble","centroid":{"lat":-36.40832312794762,"lng":-72.68010904567441},"center":{"lat":-36.43244500199998,"lng":-72.68728500099996}},{"id":"id_284","name":"Name of 284","nome":"San Carlos","provincia":"Punilla","region":"Ñuble","centroid":{"lat":-36.40565591848538,"lng":-71.99787785101454},"center":{"lat":-36.37916105949995,"lng":-72.00004499949999}},{"id":"id_285","name":"Name of 285","nome":"Coihueco","provincia":"Punilla","region":"Ñuble","centroid":{"lat":-36.71517842286482,"lng":-71.53711432719824},"center":{"lat":-36.72970899499995,"lng":-71.56225874199998}},{"id":"id_286","name":"Name of 286","nome":"Ñiquén","provincia":"Punilla","region":"Ñuble","centroid":{"lat":-36.27343861487873,"lng":-71.92602881290401},"center":{"lat":-36.28314382749994,"lng":-71.88414712699998}},{"id":"id_287","name":"Name of 287","nome":"San Fabián","provincia":"Punilla","region":"Ñuble","centroid":{"lat":-36.61931504780542,"lng":-71.27795028101248},"center":{"lat":-36.65406993899995,"lng":-71.34799292449999}},{"id":"id_288","name":"Name of 288","nome":"San Nicolás","provincia":"Punilla","region":"Ñuble","centroid":{"lat":-36.49193578194035,"lng":-72.24262811867547},"center":{"lat":-36.48582439449996,"lng":-72.22230610399998}},{"id":"id_289","name":"Name of 289","nome":"Tiltil","provincia":"Chacabuco","region":"Metropolitana de Santiago","centroid":{"lat":-33.068202005999964,"lng":-70.86988130072294},"center":{"lat":-33.074977563999965,"lng":-70.87456731449996}},{"id":"id_290","name":"Name of 290","nome":"Colina","provincia":"Chacabuco","region":"Metropolitana de Santiago","centroid":{"lat":-33.11455043966294,"lng":-70.58624804531492},"center":{"lat":-33.14234280849998,"lng":-70.58227701499996}},{"id":"id_291","name":"Name of 291","nome":"Lampa","provincia":"Chacabuco","region":"Metropolitana de Santiago","centroid":{"lat":-33.26630562648347,"lng":-70.90950154582413},"center":{"lat":-33.278023312499954,"lng":-70.86135181299997}},{"id":"id_292","name":"Name of 292","nome":"Quilicura","provincia":"Santiago","region":"Metropolitana de Santiago","centroid":{"lat":-33.35860228696662,"lng":-70.71965703229996},"center":{"lat":-33.355807616999954,"lng":-70.74190577549999}},{"id":"id_293","name":"Name of 293","nome":"Pudahuel","provincia":"Santiago","region":"Metropolitana de Santiago","centroid":{"lat":-33.42692471324996,"lng":-70.84894236792182},"center":{"lat":-33.41972959299997,"lng":-70.84322062449996}},{"id":"id_294","name":"Name of 294","nome":"Cerro Navia","provincia":"Santiago","region":"Metropolitana de Santiago","centroid":{"lat":-33.4217807528571,"lng":-70.74565692721424},"center":{"lat":-33.42523511449997,"lng":-70.74906374499997}},{"id":"id_295","name":"Name of 295","nome":"Renca","provincia":"Santiago","region":"Metropolitana de Santiago","centroid":{"lat":-33.399898597708294,"lng":-70.7208386607083},"center":{"lat":-33.403878166499965,"lng":-70.72684283099997}},{"id":"id_296","name":"Name of 296","nome":"Quinta Normal","provincia":"Santiago","region":"Metropolitana de Santiago","centroid":{"lat":-33.430080027368376,"lng":-70.69337333431574},"center":{"lat":-33.428382509499954,"lng":-70.69691098249996}},{"id":"id_297","name":"Name of 297","nome":"Huechuraba","provincia":"Santiago","region":"Metropolitana de Santiago","centroid":{"lat":-33.36035290062497,"lng":-70.6293395378437},"center":{"lat":-33.366792205499976,"lng":-70.63753403049998}},{"id":"id_298","name":"Name of 298","nome":"Conchalí","provincia":"Santiago","region":"Metropolitana de Santiago","centroid":{"lat":-33.38763361312496,"lng":-70.67483915474996},"center":{"lat":-33.384611932999974,"lng":-70.67850905699996}},{"id":"id_299","name":"Name of 299","nome":"Independencia","provincia":"Santiago","region":"Metropolitana de Santiago","centroid":{"lat":-33.41250307929996,"lng":-70.66224520149994},"center":{"lat":-33.415503365499944,"lng":-70.66599284799997}},{"id":"id_300","name":"Name of 300","nome":"Recoleta","provincia":"Santiago","region":"Metropolitana de Santiago","centroid":{"lat":-33.409800336999965,"lng":-70.63908489131246},"center":{"lat":-33.40605213999996,"lng":-70.63444416749996}},{"id":"id_301","name":"Name of 301","nome":"Vitacura","provincia":"Santiago","region":"Metropolitana de Santiago","centroid":{"lat":-33.376028282541625,"lng":-70.57666304008329},"center":{"lat":-33.37997381599997,"lng":-70.56580089199997}},{"id":"id_302","name":"Name of 302","nome":"Providencia","provincia":"Santiago","region":"Metropolitana de Santiago","centroid":{"lat":-33.4273677001538,"lng":-70.61067208730765},"center":{"lat":-33.42938521149995,"lng":-70.60924737549996}},{"id":"id_303","name":"Name of 303","nome":"Las Condes","provincia":"Santiago","region":"Metropolitana de Santiago","centroid":{"lat":-33.42528418714888,"lng":-70.48532858699994},"center":{"lat":-33.425099929499936,"lng":-70.51754751549996}},{"id":"id_304","name":"Name of 304","nome":"Ñuñoa","provincia":"Santiago","region":"Metropolitana de Santiago","centroid":{"lat":-33.45504508281813,"lng":-70.59039763854543},"center":{"lat":-33.45436082349997,"lng":-70.60115949599995}},{"id":"id_305","name":"Name of 305","nome":"Santiago","provincia":"Santiago","region":"Metropolitana de Santiago","centroid":{"lat":-33.451421418692256,"lng":-70.67141830149997},"center":{"lat":-33.45226206099994,"lng":-70.65857284299994}},{"id":"id_306","name":"Name of 306","nome":"Lo Prado","provincia":"Santiago","region":"Metropolitana de Santiago","centroid":{"lat":-33.44439922462495,"lng":-70.72235574487496},"center":{"lat":-33.44739629949996,"lng":-70.72322791849996}},{"id":"id_307","name":"Name of 307","nome":"Estación Central","provincia":"Santiago","region":"Metropolitana de Santiago","centroid":{"lat":-33.4611660201176,"lng":-70.69905108364702},"center":{"lat":-33.46259796949997,"lng":-70.70268047199997}},{"id":"id_308","name":"Name of 308","nome":"Maipú","provincia":"Santiago","region":"Metropolitana de Santiago","centroid":{"lat":-33.499540159461496,"lng":-70.81986925913458},"center":{"lat":-33.514989981999946,"lng":-70.82416677049997}},{"id":"id_309","name":"Name of 309","nome":"Pedro Aguirre Cerda","provincia":"Santiago","region":"Metropolitana de Santiago","centroid":{"lat":-33.48306451929995,"lng":-70.67587256049997},"center":{"lat":-33.49332619799995,"lng":-70.67515010399998}},{"id":"id_310","name":"Name of 310","nome":"Cerrillos","provincia":"Santiago","region":"Metropolitana de Santiago","centroid":{"lat":-33.49859596276919,"lng":-70.71641253753843},"center":{"lat":-33.50231135249993,"lng":-70.71267925399997}},{"id":"id_311","name":"Name of 311","nome":"San Miguel","provincia":"Santiago","region":"Metropolitana de Santiago","centroid":{"lat":-33.49184956259995,"lng":-70.65097018299996},"center":{"lat":-33.49758359899997,"lng":-70.65381713249994}},{"id":"id_312","name":"Name of 312","nome":"San Joaquín","provincia":"Santiago","region":"Metropolitana de Santiago","centroid":{"lat":-33.497442456888834,"lng":-70.6245003504444},"center":{"lat":-33.49412508849994,"lng":-70.62662497849996}},{"id":"id_313","name":"Name of 313","nome":"Macul","provincia":"Santiago","region":"Metropolitana de Santiago","centroid":{"lat":-33.48601761899995,"lng":-70.59392226739996},"center":{"lat":-33.48987753899996,"lng":-70.59975179399999}},{"id":"id_314","name":"Name of 314","nome":"La Reina","provincia":"Santiago","region":"Metropolitana de Santiago","centroid":{"lat":-33.44754456688231,"lng":-70.5337688601176},"center":{"lat":-33.447154050999956,"lng":-70.53544087449995}},{"id":"id_315","name":"Name of 315","nome":"Peñalolén","provincia":"Santiago","region":"Metropolitana de Santiago","centroid":{"lat":-33.48401943689651,"lng":-70.50687184037928},"center":{"lat":-33.485707370499966,"lng":-70.51360327249995}},{"id":"id_316","name":"Name of 316","nome":"Lo Espejo","provincia":"Santiago","region":"Metropolitana de Santiago","centroid":{"lat":-33.52123718739995,"lng":-70.69266478139996},"center":{"lat":-33.52031075949995,"lng":-70.68870681799996}},{"id":"id_317","name":"Name of 317","nome":"La Cisterna","provincia":"Santiago","region":"Metropolitana de Santiago","centroid":{"lat":-33.53438586983328,"lng":-70.66220018399996},"center":{"lat":-33.529755415999944,"lng":-70.66501353849998}},{"id":"id_318","name":"Name of 318","nome":"La Granja","provincia":"Santiago","region":"Metropolitana de Santiago","centroid":{"lat":-33.53312313199996,"lng":-70.61922040388885},"center":{"lat":-33.53643899249994,"lng":-70.62317303049994}},{"id":"id_319","name":"Name of 319","nome":"San Ramón","provincia":"Santiago","region":"Metropolitana de Santiago","centroid":{"lat":-33.53729869624998,"lng":-70.64199524774996},"center":{"lat":-33.537725418499974,"lng":-70.64297913849995}},{"id":"id_320","name":"Name of 320","nome":"La Florida","provincia":"Santiago","region":"Metropolitana de Santiago","centroid":{"lat":-33.52887536295741,"lng":-70.52273536587232},"center":{"lat":-33.53117682049998,"lng":-70.52574932749997}},{"id":"id_321","name":"Name of 321","nome":"El Bosque","provincia":"Santiago","region":"Metropolitana de Santiago","centroid":{"lat":-33.56059652089995,"lng":-70.67867688459997},"center":{"lat":-33.562163795999936,"lng":-70.67715125549998}},{"id":"id_322","name":"Name of 322","nome":"La Pintana","provincia":"Santiago","region":"Metropolitana de Santiago","centroid":{"lat":-33.5902647793529,"lng":-70.63123498858819},"center":{"lat":-33.59117839899997,"lng":-70.63788863599996}},{"id":"id_323","name":"Name of 323","nome":"Calera de Tango","provincia":"Maipo","region":"Metropolitana de Santiago","centroid":{"lat":-33.62503628119996,"lng":-70.78415232614283},"center":{"lat":-33.61747416399996,"lng":-70.80131187749996}},{"id":"id_324","name":"Name of 324","nome":"Puente Alto","provincia":"Cordillera","region":"Metropolitana de Santiago","centroid":{"lat":-33.591680839773545,"lng":-70.54962446060372},"center":{"lat":-33.59313373499995,"lng":-70.55879382899997}},{"id":"id_325","name":"Name of 325","nome":"Talagante","provincia":"Talagante","region":"Metropolitana de Santiago","centroid":{"lat":-33.68502498511285,"lng":-70.902485640129},"center":{"lat":-33.67715603599996,"lng":-70.90609102849999}},{"id":"id_326","name":"Name of 326","nome":"Buin","provincia":"Maipo","region":"Metropolitana de Santiago","centroid":{"lat":-33.74921637070235,"lng":-70.74477437846423},"center":{"lat":-33.73896116149996,"lng":-70.75489045799995}},{"id":"id_327","name":"Name of 327","nome":"San Bernardo","provincia":"Maipo","region":"Metropolitana de Santiago","centroid":{"lat":-33.660566616879954,"lng":-70.74725620409333},"center":{"lat":-33.63941972049997,"lng":-70.72738536349996}},{"id":"id_328","name":"Name of 328","nome":"Padre Hurtado","provincia":"Talagante","region":"Metropolitana de Santiago","centroid":{"lat":-33.55823002829996,"lng":-70.86686955185995},"center":{"lat":-33.55312391849995,"lng":-70.86341063899997}},{"id":"id_329","name":"Name of 329","nome":"Peñaflor","provincia":"Talagante","region":"Metropolitana de Santiago","centroid":{"lat":-33.607261507564075,"lng":-70.90025853997432},"center":{"lat":-33.61194083299998,"lng":-70.89365974549997}},{"id":"id_330","name":"Name of 330","nome":"El Monte","provincia":"Talagante","region":"Metropolitana de Santiago","centroid":{"lat":-33.661784510416624,"lng":-71.02819381097913},"center":{"lat":-33.66570714799994,"lng":-71.02576000499997}},{"id":"id_331","name":"Name of 331","nome":"Limache","provincia":"Marga Marga","region":"Valparaíso","centroid":{"lat":-33.02354842191545,"lng":-71.29744780029573},"center":{"lat":-33.03924394949996,"lng":-71.28849387199998}},{"id":"id_332","name":"Name of 332","nome":"Viña del Mar","provincia":"Valparaíso","region":"Valparaíso","centroid":{"lat":-33.009178710769206,"lng":-71.53049112709401},"center":{"lat":-33.02465206599996,"lng":-71.51493456299997}},{"id":"id_333","name":"Name of 333","nome":"Villa Alemana","provincia":"Marga Marga","region":"Valparaíso","centroid":{"lat":-33.071890939603726,"lng":-71.32045389315091},"center":{"lat":-33.06638452149997,"lng":-71.32901015349995}},{"id":"id_334","name":"Name of 334","nome":"Quillota","provincia":"Quillota","region":"Valparaíso","centroid":{"lat":-32.90503147684531,"lng":-71.28323178886596},"center":{"lat":-32.90188448699993,"lng":-71.28653131599998}},{"id":"id_335","name":"Name of 335","nome":"Chillán Viejo","provincia":"Diguillín","region":"Ñuble","centroid":{"lat":-36.679774497664205,"lng":-72.21511057569342},"center":{"lat":-36.681049025999954,"lng":-72.20829960599997}},{"id":"id_336","name":"Name of 336","nome":"Tomé","provincia":"Concepción","region":"Biobío","centroid":{"lat":-36.593246988281116,"lng":-72.90000442119677},"center":{"lat":-36.597310000999954,"lng":-72.85387957249998}},{"id":"id_337","name":"Name of 337","nome":"Penco","provincia":"Concepción","region":"Biobío","centroid":{"lat":-36.745031783057655,"lng":-72.94113426725957},"center":{"lat":-36.74405123949995,"lng":-72.94939274649998}},{"id":"id_338","name":"Name of 338","nome":"Concepción","provincia":"Concepción","region":"Biobío","centroid":{"lat":-36.84719324333328,"lng":-72.94586532668413},"center":{"lat":-36.84573671299995,"lng":-72.96806043949996}},{"id":"id_339","name":"Name of 339","nome":"Chiguayante","provincia":"Concepción","region":"Biobío","centroid":{"lat":-36.90161453346476,"lng":-72.98941637639432},"center":{"lat":-36.90838607149996,"lng":-73.00126851799999}},{"id":"id_340","name":"Name of 340","nome":"Hualpén","provincia":"Concepción","region":"Biobío","centroid":{"lat":-36.77818922914017,"lng":-73.18769111691586},"center":{"lat":-36.783316358999976,"lng":-73.14352571199996}},{"id":"id_341","name":"Name of 341","nome":"San Pedro de la Paz","provincia":"Concepción","region":"Biobío","centroid":{"lat":-36.91002947334142,"lng":-73.0891761349512},"center":{"lat":-36.89481545399997,"lng":-73.09667321749997}},{"id":"id_342","name":"Name of 342","nome":"Hualqui","provincia":"Concepción","region":"Biobío","centroid":{"lat":-37.017166422989256,"lng":-72.85038624364702},"center":{"lat":-37.04591402299994,"lng":-72.86901495499995}},{"id":"id_343","name":"Name of 343","nome":"Río Verde","provincia":"Magallanes","region":"Magallanes y de la Antártica Chilena","centroid":{"lat":-52.92375039232445,"lng":-72.9554397274585},"center":{"lat":-52.93991409299997,"lng":-72.57041247549995}},{"id":"id_344","name":"Name of 344","nome":"Concón","provincia":"Valparaíso","region":"Valparaíso","centroid":{"lat":-32.94857694130765,"lng":-71.45876892681534},"center":{"lat":-32.957908148999934,"lng":-71.46985945249997}}]}