{"objects":[{"id":"id_0","name":"Name of 0","nome":"Concepción","region":"Biobío","centroid":{"lat":-36.89395625296699,"lng":-73.15793809074314},"center":{"lat":-36.94714624149995,"lng":-73.06399061949998}},{"id":"id_1","name":"Name of 1","nome":"Tamarugal","region":"Tarapacá","centroid":{"lat":-19.960118941123145,"lng":-69.61005069995775},"center":{"lat":-20.282257511999944,"lng":-69.34566033349998}},{"id":"id_2","name":"Name of 2","nome":"Choapa","region":"Coquimbo","centroid":{"lat":-31.773592365031643,"lng":-71.2886126825215},"center":{"lat":-31.71205649999996,"lng":-70.92797698199998}},{"id":"id_3","name":"Name of 3","nome":"Petorca","region":"Valparaíso","centroid":{"lat":-32.36048614522917,"lng":-71.07757872109799},"center":{"lat":-32.35221761349993,"lng":-70.97637513849995}},{"id":"id_4","name":"Name of 4","nome":"Llanquihue","region":"Los Lagos","centroid":{"lat":-41.515528704485774,"lng":-73.12609289626488},"center":{"lat":-41.49496146499996,"lng":-72.82900788349994}},{"id":"id_5","name":"Name of 5","nome":"General Carrera","region":"Aysén del General Carlos Ibáñez del Campo","centroid":{"lat":-46.52356094895295,"lng":-72.54338626753484},"center":{"lat":-46.50571188349997,"lng":-72.52847172699995}},{"id":"id_6","name":"Name of 6","nome":"San Felipe de Aconcagua","region":"Valparaíso","centroid":{"lat":-32.6102685887889,"lng":-70.66933498288486},"center":{"lat":-32.61722019999996,"lng":-70.63636573249994}},{"id":"id_7","name":"Name of 7","nome":"Magallanes","region":"Magallanes y de la Antártica Chilena","centroid":{"lat":-53.62740919267387,"lng":-72.88208519980257},"center":{"lat":-53.290729466499954,"lng":-71.58320257849996}},{"id":"id_8","name":"Name of 8","nome":"Talagante","region":"Metropolitana de Santiago","centroid":{"lat":-33.67702014405402,"lng":-70.92575099722968},"center":{"lat":-33.65709142749995,"lng":-70.94915522649995}},{"id":"id_9","name":"Name of 9","nome":"Parinacota","region":"Arica y Parinacota","centroid":{"lat":-18.390848731770788,"lng":-69.266775537736},"center":{"lat":-18.266091754999962,"lng":-69.36885611999995}},{"id":"id_10","name":"Name of 10","nome":"Chacabuco","region":"Metropolitana de Santiago","centroid":{"lat":-33.128723762284594,"lng":-70.72433379578274},"center":{"lat":-33.15401755099995,"lng":-70.70100029899996}},{"id":"id_11","name":"Name of 11","nome":"Chañaral","region":"Atacama","centroid":{"lat":-26.23058617190792,"lng":-69.67140986080027},"center":{"lat":-26.114434843499936,"lng":-69.54682193849996}},{"id":"id_12","name":"Name of 12","nome":"Cordillera","region":"Metropolitana de Santiago","centroid":{"lat":-33.700034451771614,"lng":-70.1170098443217},"center":{"lat":-33.67118928699995,"lng":-70.21272399499998}},{"id":"id_13","name":"Name of 13","nome":"Linares","region":"Maule","centroid":{"lat":-36.04851288829182,"lng":-71.41357091721422},"center":{"lat":-35.980821935999955,"lng":-71.37895515549997}},{"id":"id_14","name":"Name of 14","nome":"Cardenal Caro","region":"Libertador General Bernardo O'Higgins","centroid":{"lat":-34.337590997906005,"lng":-71.7666816010521},"center":{"lat":-34.37154731049995,"lng":-71.75489913749996}},{"id":"id_15","name":"Name of 15","nome":"Quillota","region":"Valparaíso","centroid":{"lat":-32.79233071922219,"lng":-71.1979168885466},"center":{"lat":-32.79031445849995,"lng":-71.22793284249997}},{"id":"id_16","name":"Name of 16","nome":"Coihaique","region":"Aysén del General Carlos Ibáñez del Campo","centroid":{"lat":-45.08678496206772,"lng":-71.93977029685067},"center":{"lat":-45.03253061399997,"lng":-72.00941513649994}},{"id":"id_17","name":"Name of 17","nome":"Cautín","region":"La Araucanía","centroid":{"lat":-38.92640126999047,"lng":-72.37902935285076},"center":{"lat":-38.97895251649996,"lng":-72.44693776949998}},{"id":"id_18","name":"Name of 18","nome":"Cauquenes","region":"Maule","centroid":{"lat":-35.92325840358759,"lng":-72.36712969852587},"center":{"lat":-35.901090806999946,"lng":-72.38167189399994}},{"id":"id_19","name":"Name of 19","nome":"Tierra del Fuego","region":"Magallanes y de la Antártica Chilena","centroid":{"lat":-54.21296869244903,"lng":-69.98186711910925},"center":{"lat":-53.61507523199995,"lng":-69.86019986849996}},{"id":"id_20","name":"Name of 20","nome":"Osorno","region":"Los Lagos","centroid":{"lat":-40.75178025612227,"lng":-73.31860959860445},"center":{"lat":-40.67778873349994,"lng":-72.88538808749996}},{"id":"id_21","name":"Name of 21","nome":"Biobío","region":"Biobío","centroid":{"lat":-37.5253275050932,"lng":-72.03714736967274},"center":{"lat":-37.60527942249996,"lng":-72.02710951049994}},{"id":"id_22","name":"Name of 22","nome":"Aisén","region":"Aysén del General Carlos Ibáñez del Campo","centroid":{"lat":-45.17788522076014,"lng":-74.05479514996114},"center":{"lat":-46.10050380149994,"lng":-73.80762360849997}},{"id":"id_23","name":"Name of 23","nome":"Melipilla","region":"Metropolitana de Santiago","centroid":{"lat":-33.73982859314581,"lng":-71.19781072286571},"center":{"lat":-33.69085574649995,"lng":-71.25365360399996}},{"id":"id_24","name":"Name of 24","nome":"Isla de Pascua","region":"Valparaíso","centroid":{"lat":-27.080210463746532,"lng":-109.18104785315356},"center":{"lat":-26.836130158999964,"lng":-107.40715185349995}},{"id":"id_25","name":"Name of 25","nome":"Maipo","region":"Metropolitana de Santiago","centroid":{"lat":-33.80627323408404,"lng":-70.74601797735043},"center":{"lat":-33.75644648749997,"lng":-70.73146074699999}},{"id":"id_26","name":"Name of 26","nome":"Palena","region":"Los Lagos","centroid":{"lat":-42.84278869921931,"lng":-72.5850542205413},"center":{"lat":-42.89043973799997,"lng":-72.342905209}},{"id":"id_27","name":"Name of 27","nome":"Colchagua","region":"Libertador General Bernardo O'Higgins","centroid":{"lat":-34.712976767669424,"lng":-71.08726123079742},"center":{"lat":-34.68185359249998,"lng":-71.05425345699996}},{"id":"id_28","name":"Name of 28","nome":"Punilla","region":"Ñuble","centroid":{"lat":-36.538204673518116,"lng":-71.67556055694915},"center":{"lat":-36.55348691149996,"lng":-71.70137792499997}},{"id":"id_29","name":"Name of 29","nome":"Santiago","region":"Metropolitana de Santiago","centroid":{"lat":-33.368678481890946,"lng":-70.52799486085334},"center":{"lat":-33.36218943749995,"lng":-70.56533499899996}},{"id":"id_30","name":"Name of 30","nome":"Antofagasta","region":"Antofagasta","centroid":{"lat":-24.427113003998357,"lng":-70.10427967871314},"center":{"lat":-24.243803138499942,"lng":-69.405793674}},{"id":"id_31","name":"Name of 31","nome":"Ranco","region":"Los Ríos","centroid":{"lat":-40.25231302454476,"lng":-72.58946034705825},"center":{"lat":-40.28849004899993,"lng":-72.69050840499997}},{"id":"id_32","name":"Name of 32","nome":"Valdivia","region":"Los Ríos","centroid":{"lat":-39.78484479418119,"lng":-72.75869956654608},"center":{"lat":-39.74411730399996,"lng":-72.65030326649995}},{"id":"id_33","name":"Name of 33","nome":"Elqui","region":"Coquimbo","centroid":{"lat":-29.797555832664553,"lng":-70.91761246035641},"center":{"lat":-29.777580288999957,"lng":-70.74021101399995}},{"id":"id_34","name":"Name of 34","nome":"Itata","region":"Ñuble","centroid":{"lat":-36.34825568336853,"lng":-72.58220715877778},"center":{"lat":-36.369400089499976,"lng":-72.58110308649998}},{"id":"id_35","name":"Name of 35","nome":"Última Esperanza","region":"Magallanes y de la Antártica Chilena","centroid":{"lat":-51.31428870624542,"lng":-74.42344232852422},"center":{"lat":-50.71294395299995,"lng":-73.68452066249995}},{"id":"id_36","name":"Name of 36","nome":"Copiapó","region":"Atacama","centroid":{"lat":-27.396957473871396,"lng":-70.31561324327183},"center":{"lat":-27.643272162499954,"lng":-69.70380423649996}},{"id":"id_37","name":"Name of 37","nome":"Talca","region":"Maule","centroid":{"lat":-35.56376090211838,"lng":-71.3604800124701},"center":{"lat":-35.57429783199996,"lng":-71.46540204649997}},{"id":"id_38","name":"Name of 38","nome":"Diguillín","region":"Ñuble","centroid":{"lat":-36.89042920720813,"lng":-71.94449340692698},"center":{"lat":-36.85326554399995,"lng":-71.87695425649994}},{"id":"id_39","name":"Name of 39","nome":"Limarí","region":"Coquimbo","centroid":{"lat":-30.822761133033204,"lng":-71.11803067725998},"center":{"lat":-30.822473827499948,"lng":-70.94865777199996}},{"id":"id_40","name":"Name of 40","nome":"Marga Marga","region":"Valparaíso","centroid":{"lat":-33.08454235128865,"lng":-71.26318227105435},"center":{"lat":-33.081659148499966,"lng":-71.24182516249996}},{"id":"id_41","name":"Name of 41","nome":"Capitán Prat","region":"Aysén del General Carlos Ibáñez del Campo","centroid":{"lat":-47.9730654256941,"lng":-74.65410513964065},"center":{"lat":-48.00900069599996,"lng":-73.76417754149995}},{"id":"id_42","name":"Name of 42","nome":"San Antonio","region":"Valparaíso","centroid":{"lat":-33.56055918713395,"lng":-71.62417238896603},"center":{"lat":-33.61290413349994,"lng":-71.61191701599998}},{"id":"id_43","name":"Name of 43","nome":"El Loa","region":"Antofagasta","centroid":{"lat":-22.70156876088349,"lng":-68.27694303013669},"center":{"lat":-22.630797346499946,"lng":-68.09159136299996}},{"id":"id_44","name":"Name of 44","nome":"Huasco","region":"Atacama","centroid":{"lat":-28.65338458739607,"lng":-70.81497232798523},"center":{"lat":-28.749185000999972,"lng":-70.63982495749997}},{"id":"id_45","name":"Name of 45","nome":"Los Andes","region":"Valparaíso","centroid":{"lat":-32.84308675869549,"lng":-70.35683995568564},"center":{"lat":-32.808039202999936,"lng":-70.37819117249995}},{"id":"id_46","name":"Name of 46","nome":"Antártica Chilena","region":"Magallanes y de la Antártica Chilena","centroid":{"lat":-55.104671711033006,"lng":-69.85060648532367},"center":{"lat":-55.449822488999956,"lng":-69.37271983949998}},{"id":"id_47","name":"Name of 47","nome":"Malleco","region":"La Araucanía","centroid":{"lat":-38.23331443105898,"lng":-72.18290506374427},"center":{"lat":-38.24595599449995,"lng":-72.08341992899997}},{"id":"id_48","name":"Name of 48","nome":"Iquique","region":"Tarapacá","centroid":{"lat":-20.830903190707335,"lng":-70.14772389122058},"center":{"lat":-20.743720000999957,"lng":-70.01535448149997}},{"id":"id_49","name":"Name of 49","nome":"Arauco","region":"Biobío","centroid":{"lat":-37.79484554441335,"lng":-73.57713799996773},"center":{"lat":-37.818063695499994,"lng":-73.47737105949997}},{"id":"id_50","name":"Name of 50","nome":"Valparaíso","region":"Valparaíso","centroid":{"lat":-32.74876727768225,"lng":-74.04438451393975},"center":{"lat":-30.04469958399997,"lng":-76.01668720649997}},{"id":"id_51","name":"Name of 51","nome":"Cachapoal","region":"Libertador General Bernardo O'Higgins","centroid":{"lat":-34.266047667051964,"lng":-70.78611230823621},"center":{"lat":-34.27685902999994,"lng":-70.79280524249998}},{"id":"id_52","name":"Name of 52","nome":"Tocopilla","region":"Antofagasta","centroid":{"lat":-22.039673355929544,"lng":-70.07065485492271},"center":{"lat":-22.08292021449995,"lng":-69.5766099995}},{"id":"id_53","name":"Name of 53","nome":"Arica","region":"Arica y Parinacota","centroid":{"lat":-18.758203977801877,"lng":-69.7893157592052},"center":{"lat":-18.63858692049996,"lng":-69.72424560799996}},{"id":"id_54","name":"Name of 54","nome":"Curicó","region":"Maule","centroid":{"lat":-35.11591188803879,"lng":-71.11865451270285},"center":{"lat":-35.15719425649996,"lng":-71.27267497249997}},{"id":"id_55","name":"Name of 55","nome":"Chiloé","region":"Los Lagos","centroid":{"lat":-42.63292141981193,"lng":-73.93768042957672},"center":{"lat":-42.72411000099996,"lng":-73.95126000049999}}]}